{"date":{"utc":"2020-06-18T20:00:00.000Z","local":"2020-06-18T20:00:00+00:00"},"parameter":"pm25","value":33,"unit":"µg/m³","averagingPeriod":{"value":1,"unit":"hours"},"location":"US Diplomatic Post: Abidjan","city":"Abidjan","country":"CI","coordinates":{"latitude":5.335049,"longitude":-3.976023},"attribution":[{"name":"EPA AirNow DOS","url":"http://airnow.gov/index.cfm?action=airnow.global_summary"}],"sourceName":"StateAir_Abidjan","sourceType":"government","mobile":false}
{"date":{"utc":"2020-06-18T20:00:00.000Z","local":"2020-06-18T15:00:00-05:00"},"parameter":"pm25","value":16,"unit":"µg/m³","averagingPeriod":{"value":1,"unit":"hours"},"location":"US Diplomatic Post: Bogota","city":"Bogota","country":"CO","coordinates":{"latitude":4.637735,"longitude":-74.09486},"attribution":[{"name":"EPA AirNow DOS","url":"http://airnow.gov/index.cfm?action=airnow.global_summary"}],"sourceName":"StateAir_Bogota","sourceType":"government","mobile":false}
{"date":{"utc":"2020-06-18T19:00:00.000Z","local":"2020-06-18T14:00:00-05:00"},"parameter":"pm25","value":0,"unit":"µg/m³","averagingPeriod":{"value":1,"unit":"hours"},"location":"VILLA MARIA DEL TRIUNFO","city":"Lima","country":"PE","coordinates":{"latitude":-12.166389,"longitude":-76.92},"attribution":[{"name":"Peru Ministerio de Ambiente","url":"http://www.senamhi.gob.pe/"}],"sourceName":"Senamhi","sourceType":"government","mobile":false}
{"date":{"utc":"2020-06-18T20:00:00.000Z","local":"2020-06-19T04:00:00+08:00"},"parameter":"no2","value":6.1,"unit":"µg/m³","averagingPeriod":{"value":1,"unit":"hours"},"location":"Central/Western","city":"Central & Western","country":"HK","coordinates":{"longitude":114.14444444444445,"latitude":22.285},"attribution":[{"name":"Environmental Protection Department","url":"https://data.gov.hk/en-data/dataset/hk-epd-airteam-past24hr-pc-of-individual-air-quality-monitoring-stations"}],"sourceName":"Hong Kong","sourceType":"government","mobile":false}
{"date":{"utc":"2020-06-18T20:00:00.000Z","local":"2020-06-19T04:00:00+08:00"},"parameter":"o3","value":39.6,"unit":"µg/m³","averagingPeriod":{"value":1,"unit":"hours"},"location":"Central/Western","city":"Central & Western","country":"HK","coordinates":{"longitude":114.14444444444445,"latitude":22.285},"attribution":[{"name":"Environmental Protection Department","url":"https://data.gov.hk/en-data/dataset/hk-epd-airteam-past24hr-pc-of-individual-air-quality-monitoring-stations"}],"sourceName":"Hong Kong","sourceType":"government","mobile":false}
{"date":{"utc":"2020-06-18T19:00:00.000Z","local":"2020-06-18T14:00:00-05:00"},"parameter":"pm10","value":85.91,"unit":"µg/m³","averagingPeriod":{"value":1,"unit":"hours"},"location":"VILLA MARIA DEL TRIUNFO","city":"Lima","country":"PE","coordinates":{"latitude":-12.166389,"longitude":-76.92},"attribution":[{"name":"Peru Ministerio de Ambiente","url":"http://www.senamhi.gob.pe/"}],"sourceName":"Senamhi","sourceType":"government","mobile":false}
{"date":{"utc":"2020-06-18T19:00:00.000Z","local":"2020-06-18T14:00:00-05:00"},"parameter":"no2","value":24.09,"unit":"µg/m³","averagingPeriod":{"value":1,"unit":"hours"},"location":"VILLA MARIA DEL TRIUNFO","city":"Lima","country":"PE","coordinates":{"latitude":-12.166389,"longitude":-76.92},"attribution":[{"name":"Peru Ministerio de Ambiente","url":"http://www.senamhi.gob.pe/"}],"sourceName":"Senamhi","sourceType":"government","mobile":false}
{"date":{"utc":"2020-06-18T20:00:00.000Z","local":"2020-06-19T04:00:00+08:00"},"parameter":"so2","value":4.2,"unit":"µg/m³","averagingPeriod":{"value":1,"unit":"hours"},"location":"Central/Western","city":"Central & Western","country":"HK","coordinates":{"longitude":114.14444444444445,"latitude":22.285},"attribution":[{"name":"Environmental Protection Department","url":"https://data.gov.hk/en-data/dataset/hk-epd-airteam-past24hr-pc-of-individual-air-quality-monitoring-stations"}],"sourceName":"Hong Kong","sourceType":"government","mobile":false}
{"date":{"utc":"2020-06-18T20:00:00.000Z","local":"2020-06-19T04:00:00+08:00"},"parameter":"pm10","value":5.3,"unit":"µg/m³","averagingPeriod":{"value":1,"unit":"hours"},"location":"Central/Western","city":"Central & Western","country":"HK","coordinates":{"longitude":114.14444444444445,"latitude":22.285},"attribution":[{"name":"Environmental Protection Department","url":"https://data.gov.hk/en-data/dataset/hk-epd-airteam-past24hr-pc-of-individual-air-quality-monitoring-stations"}],"sourceName":"Hong Kong","sourceType":"government","mobile":false}
{"date":{"utc":"2020-06-18T19:00:00.000Z","local":"2020-06-18T21:00:00+02:00"},"parameter":"co","value":0.4119,"unit":"µg/m³","averagingPeriod":{"value":1,"unit":"hours"},"location":"Amsterdam-Einsteinweg","city":"Amsterdam","country":"NL","coordinates":{"latitude":52.3813,"longitude":4.84523},"attribution":[{"name":"RIVM","url":"http://www.lml.rivm.nl/"},{"name":"GGD A'dam"}],"sourceName":"Netherlands","sourceType":"government","mobile":false}
{"date":{"utc":"2020-06-18T20:00:00.000Z","local":"2020-06-19T04:00:00+08:00"},"parameter":"pm25","value":3.4,"unit":"µg/m³","averagingPeriod":{"value":1,"unit":"hours"},"location":"Central/Western","city":"Central & Western","country":"HK","coordinates":{"longitude":114.14444444444445,"latitude":22.285},"attribution":[{"name":"Environmental Protection Department","url":"https://data.gov.hk/en-data/dataset/hk-epd-airteam-past24hr-pc-of-individual-air-quality-monitoring-stations"}],"sourceName":"Hong Kong","sourceType":"government","mobile":false}
{"date":{"utc":"2020-06-18T19:00:00.000Z","local":"2020-06-18T21:00:00+02:00"},"parameter":"co","value":0.3295,"unit":"µg/m³","averagingPeriod":{"value":1,"unit":"hours"},"location":"Amsterdam-Van Diemenstraat","city":"Amsterdam","country":"NL","coordinates":{"latitude":52.39,"longitude":4.88781},"attribution":[{"name":"RIVM","url":"http://www.lml.rivm.nl/"},{"name":"GGD A'dam"}],"sourceName":"Netherlands","sourceType":"government","mobile":false}
{"date":{"utc":"2020-06-18T20:00:00.000Z","local":"2020-06-19T04:00:00+08:00"},"parameter":"no2","value":6.9,"unit":"µg/m³","averagingPeriod":{"value":1,"unit":"hours"},"location":"Eastern","city":"Eastern","country":"HK","coordinates":{"longitude":114.21944444444445,"latitude":22.282777777777778},"attribution":[{"name":"Environmental Protection Department","url":"https://data.gov.hk/en-data/dataset/hk-epd-airteam-past24hr-pc-of-individual-air-quality-monitoring-stations"}],"sourceName":"Hong Kong","sourceType":"government","mobile":false}
{"date":{"utc":"2020-06-18T19:00:00.000Z","local":"2020-06-18T21:00:00+02:00"},"parameter":"co","value":0.2829,"unit":"µg/m³","averagingPeriod":{"value":1,"unit":"hours"},"location":"Amsterdam-Vondelpark","city":"Amsterdam","country":"NL","coordinates":{"latitude":52.3597,"longitude":4.86621},"attribution":[{"name":"RIVM","url":"http://www.lml.rivm.nl/"},{"name":"GGD A'dam"}],"sourceName":"Netherlands","sourceType":"government","mobile":false}
{"date":{"utc":"2020-06-18T20:00:00.000Z","local":"2020-06-19T04:00:00+08:00"},"parameter":"o3","value":34.9,"unit":"µg/m³","averagingPeriod":{"value":1,"unit":"hours"},"location":"Eastern","city":"Eastern","country":"HK","coordinates":{"longitude":114.21944444444445,"latitude":22.282777777777778},"attribution":[{"name":"Environmental Protection Department","url":"https://data.gov.hk/en-data/dataset/hk-epd-airteam-past24hr-pc-of-individual-air-quality-monitoring-stations"}],"sourceName":"Hong Kong","sourceType":"government","mobile":false}
{"date":{"utc":"2020-06-18T19:00:00.000Z","local":"2020-06-18T21:00:00+02:00"},"parameter":"co","value":0.1734,"unit":"µg/m³","averagingPeriod":{"value":1,"unit":"hours"},"location":"IJmuiden-Kanaaldijk","city":"IJmuiden","country":"NL","coordinates":{"latitude":52.463,"longitude":4.60184},"attribution":[{"name":"RIVM","url":"http://www.lml.rivm.nl/"},{"name":"Prov. N-Holland"}],"sourceName":"Netherlands","sourceType":"government","mobile":false}
{"date":{"utc":"2020-06-18T20:00:00.000Z","local":"2020-06-19T04:00:00+08:00"},"parameter":"so2","value":1.5,"unit":"µg/m³","averagingPeriod":{"value":1,"unit":"hours"},"location":"Eastern","city":"Eastern","country":"HK","coordinates":{"longitude":114.21944444444445,"latitude":22.282777777777778},"attribution":[{"name":"Environmental Protection Department","url":"https://data.gov.hk/en-data/dataset/hk-epd-airteam-past24hr-pc-of-individual-air-quality-monitoring-stations"}],"sourceName":"Hong Kong","sourceType":"government","mobile":false}
{"date":{"utc":"2020-06-18T19:00:00.000Z","local":"2020-06-18T21:00:00+02:00"},"parameter":"co","value":0.2559,"unit":"µg/m³","averagingPeriod":{"value":1,"unit":"hours"},"location":"Wijk aan Zee-Burgemeester Rothestraat","city":"Wijk aan Zee","country":"NL","coordinates":{"latitude":52.494,"longitude":4.60199},"attribution":[{"name":"RIVM","url":"http://www.lml.rivm.nl/"},{"name":"Prov. N-Holland"}],"sourceName":"Netherlands","sourceType":"government","mobile":false}
{"date":{"utc":"2020-06-18T20:00:00.000Z","local":"2020-06-19T04:00:00+08:00"},"parameter":"pm10","value":12.3,"unit":"µg/m³","averagingPeriod":{"value":1,"unit":"hours"},"location":"Eastern","city":"Eastern","country":"HK","coordinates":{"longitude":114.21944444444445,"latitude":22.282777777777778},"attribution":[{"name":"Environmental Protection Department","url":"https://data.gov.hk/en-data/dataset/hk-epd-airteam-past24hr-pc-of-individual-air-quality-monitoring-stations"}],"sourceName":"Hong Kong","sourceType":"government","mobile":false}
{"date":{"utc":"2020-06-18T19:00:00.000Z","local":"2020-06-18T21:00:00+02:00"},"parameter":"co","value":0.3854,"unit":"µg/m³","averagingPeriod":{"value":1,"unit":"hours"},"location":"Badhoevedorp-Sloterweg","city":"Badhoevedorp","country":"NL","coordinates":{"latitude":52.334,"longitude":4.77401},"attribution":[{"name":"RIVM","url":"http://www.lml.rivm.nl/"},{"name":"Prov. N-Holland"}],"sourceName":"Netherlands","sourceType":"government","mobile":false}
{"date":{"utc":"2020-06-18T20:00:00.000Z","local":"2020-06-19T04:00:00+08:00"},"parameter":"pm25","value":5.3,"unit":"µg/m³","averagingPeriod":{"value":1,"unit":"hours"},"location":"Eastern","city":"Eastern","country":"HK","coordinates":{"longitude":114.21944444444445,"latitude":22.282777777777778},"attribution":[{"name":"Environmental Protection Department","url":"https://data.gov.hk/en-data/dataset/hk-epd-airteam-past24hr-pc-of-individual-air-quality-monitoring-stations"}],"sourceName":"Hong Kong","sourceType":"government","mobile":false}
{"date":{"utc":"2020-06-18T19:00:00.000Z","local":"2020-06-18T21:00:00+02:00"},"parameter":"co","value":-995,"unit":"µg/m³","averagingPeriod":{"value":1,"unit":"hours"},"location":"Zegveld-Oude Meije","city":"Zegveld","country":"NL","coordinates":{"latitude":52.138,"longitude":4.83819},"attribution":[{"name":"RIVM","url":"http://www.lml.rivm.nl/"}],"sourceName":"Netherlands","sourceType":"government","mobile":false}
{"date":{"utc":"2020-06-18T20:00:00.000Z","local":"2020-06-19T04:00:00+08:00"},"parameter":"pm10","value":9,"unit":"µg/m³","averagingPeriod":{"value":1,"unit":"hours"},"location":"Kwun Tong","city":"Kowloon","country":"HK","coordinates":{"longitude":114.22472222222223,"latitude":22.313333333333333},"attribution":[{"name":"Environmental Protection Department","url":"https://data.gov.hk/en-data/dataset/hk-epd-airteam-past24hr-pc-of-individual-air-quality-monitoring-stations"}],"sourceName":"Hong Kong","sourceType":"government","mobile":false}
{"date":{"utc":"2020-06-18T19:00:00.000Z","local":"2020-06-18T21:00:00+02:00"},"parameter":"co","value":-995,"unit":"µg/m³","averagingPeriod":{"value":1,"unit":"hours"},"location":"Nijmegen-Ruyterstraat","city":"Nijmegen","country":"NL","coordinates":{"latitude":51.8382,"longitude":5.85694},"attribution":[{"name":"RIVM","url":"http://www.lml.rivm.nl/"}],"sourceName":"Netherlands","sourceType":"government","mobile":false}
{"date":{"utc":"2020-06-18T20:00:00.000Z","local":"2020-06-19T04:00:00+08:00"},"parameter":"pm25","value":7,"unit":"µg/m³","averagingPeriod":{"value":1,"unit":"hours"},"location":"Kwun Tong","city":"Kowloon","country":"HK","coordinates":{"longitude":114.22472222222223,"latitude":22.313333333333333},"attribution":[{"name":"Environmental Protection Department","url":"https://data.gov.hk/en-data/dataset/hk-epd-airteam-past24hr-pc-of-individual-air-quality-monitoring-stations"}],"sourceName":"Hong Kong","sourceType":"government","mobile":false}
{"date":{"utc":"2020-06-18T19:00:00.000Z","local":"2020-06-18T21:00:00+02:00"},"parameter":"no2","value":51,"unit":"µg/m³","averagingPeriod":{"value":1,"unit":"hours"},"location":"Hoogvliet-Leemkuil","city":"Hoogvliet","country":"NL","coordinates":{"latitude":51.8674,"longitude":4.35524},"attribution":[{"name":"RIVM","url":"http://www.lml.rivm.nl/"},{"name":"DCMR"}],"sourceName":"Netherlands","sourceType":"government","mobile":false}
{"date":{"utc":"2020-06-18T20:00:00.000Z","local":"2020-06-19T04:00:00+08:00"},"parameter":"no2","value":23.7,"unit":"µg/m³","averagingPeriod":{"value":1,"unit":"hours"},"location":"Sham Shui Po","city":"Kowloon","country":"HK","coordinates":{"longitude":114.15916666666668,"latitude":22.330277777777777},"attribution":[{"name":"Environmental Protection Department","url":"https://data.gov.hk/en-data/dataset/hk-epd-airteam-past24hr-pc-of-individual-air-quality-monitoring-stations"}],"sourceName":"Hong Kong","sourceType":"government","mobile":false}
{"date":{"utc":"2020-06-18T19:00:00.000Z","local":"2020-06-18T21:00:00+02:00"},"parameter":"no2","value":53.7,"unit":"µg/m³","averagingPeriod":{"value":1,"unit":"hours"},"location":"Rotterdam Zuid-Pleinweg","city":"Rotterdam Zuid","country":"NL","coordinates":{"latitude":51.8911,"longitude":4.48069},"attribution":[{"name":"RIVM","url":"http://www.lml.rivm.nl/"},{"name":"DCMR"}],"sourceName":"Netherlands","sourceType":"government","mobile":false}
{"date":{"utc":"2020-06-18T20:00:00.000Z","local":"2020-06-19T04:00:00+08:00"},"parameter":"o3","value":22.4,"unit":"µg/m³","averagingPeriod":{"value":1,"unit":"hours"},"location":"Sham Shui Po","city":"Kowloon","country":"HK","coordinates":{"longitude":114.15916666666668,"latitude":22.330277777777777},"attribution":[{"name":"Environmental Protection Department","url":"https://data.gov.hk/en-data/dataset/hk-epd-airteam-past24hr-pc-of-individual-air-quality-monitoring-stations"}],"sourceName":"Hong Kong","sourceType":"government","mobile":false}
{"date":{"utc":"2020-06-18T19:00:00.000Z","local":"2020-06-18T21:00:00+02:00"},"parameter":"no2","value":21.4,"unit":"µg/m³","averagingPeriod":{"value":1,"unit":"hours"},"location":"Rotterdam Zuid-Zwartewaalstraat","city":"Rotterdam Zuid","country":"NL","coordinates":{"latitude":51.8936,"longitude":4.48753},"attribution":[{"name":"RIVM","url":"http://www.lml.rivm.nl/"},{"name":"DCMR"}],"sourceName":"Netherlands","sourceType":"government","mobile":false}
{"date":{"utc":"2020-06-18T21:00:00.000Z","local":"2020-06-18T17:00:00-04:00"},"parameter":"so2","value":11.52,"unit":"µg/m³","location":"SM2","city":"Huasco","country":"CL","coordinates":{"latitude":-28.461865976957,"longitude":-71.181390767212},"attribution":[{"name":"SINCA","url":"http://sinca.mma.gob.cl/"},{"name":"GUACOLDA ENERGIA S.A."}],"sourceName":"Chile - SINCA","sourceType":"government","mobile":false}
{"date":{"utc":"2020-06-18T20:00:00.000Z","local":"2020-06-19T04:00:00+08:00"},"parameter":"so2","value":4.8,"unit":"µg/m³","averagingPeriod":{"value":1,"unit":"hours"},"location":"Sham Shui Po","city":"Kowloon","country":"HK","coordinates":{"longitude":114.15916666666668,"latitude":22.330277777777777},"attribution":[{"name":"Environmental Protection Department","url":"https://data.gov.hk/en-data/dataset/hk-epd-airteam-past24hr-pc-of-individual-air-quality-monitoring-stations"}],"sourceName":"Hong Kong","sourceType":"government","mobile":false}
{"date":{"utc":"2020-06-18T21:00:00.000Z","local":"2020-06-18T17:00:00-04:00"},"parameter":"so2","value":13.98,"unit":"µg/m³","location":"SM4 ","city":"Huasco","country":"CL","coordinates":{"latitude":-28.481300969425,"longitude":-71.167198427408},"attribution":[{"name":"SINCA","url":"http://sinca.mma.gob.cl/"},{"name":"GUACOLDA ENERGIA S.A."}],"sourceName":"Chile - SINCA","sourceType":"government","mobile":false}
{"date":{"utc":"2020-06-18T19:00:00.000Z","local":"2020-06-18T21:00:00+02:00"},"parameter":"no2","value":23.3,"unit":"µg/m³","averagingPeriod":{"value":1,"unit":"hours"},"location":"Ridderkerk-Hogeweg","city":"Ridderkerk","country":"NL","coordinates":{"latitude":51.8694,"longitude":4.58006},"attribution":[{"name":"RIVM","url":"http://www.lml.rivm.nl/"},{"name":"DCMR"}],"sourceName":"Netherlands","sourceType":"government","mobile":false}
{"date":{"utc":"2020-06-18T20:00:00.000Z","local":"2020-06-19T04:00:00+08:00"},"parameter":"pm10","value":11.6,"unit":"µg/m³","averagingPeriod":{"value":1,"unit":"hours"},"location":"Sham Shui Po","city":"Kowloon","country":"HK","coordinates":{"longitude":114.15916666666668,"latitude":22.330277777777777},"attribution":[{"name":"Environmental Protection Department","url":"https://data.gov.hk/en-data/dataset/hk-epd-airteam-past24hr-pc-of-individual-air-quality-monitoring-stations"}],"sourceName":"Hong Kong","sourceType":"government","mobile":false}
{"date":{"utc":"2020-06-18T19:00:00.000Z","local":"2020-06-18T21:00:00+02:00"},"parameter":"no2","value":19.7,"unit":"µg/m³","averagingPeriod":{"value":1,"unit":"hours"},"location":"Rotterdam-Oost Sidelinge A13","city":"Rotterdam","country":"NL","coordinates":{"latitude":51.9385,"longitude":4.43069},"attribution":[{"name":"RIVM","url":"http://www.lml.rivm.nl/"},{"name":"DCMR"}],"sourceName":"Netherlands","sourceType":"government","mobile":false}
{"date":{"utc":"2020-06-18T21:00:00.000Z","local":"2020-06-18T17:00:00-04:00"},"parameter":"so2","value":13.62,"unit":"µg/m³","location":"SM5 ","city":"Huasco","country":"CL","coordinates":{"latitude":-28.484485273511,"longitude":-71.146118224884},"attribution":[{"name":"SINCA","url":"http://sinca.mma.gob.cl/"},{"name":"GUACOLDA ENERGIA S.A."}],"sourceName":"Chile - SINCA","sourceType":"government","mobile":false}
{"date":{"utc":"2020-06-18T20:00:00.000Z","local":"2020-06-19T04:00:00+08:00"},"parameter":"pm25","value":5,"unit":"µg/m³","averagingPeriod":{"value":1,"unit":"hours"},"location":"Sham Shui Po","city":"Kowloon","country":"HK","coordinates":{"longitude":114.15916666666668,"latitude":22.330277777777777},"attribution":[{"name":"Environmental Protection Department","url":"https://data.gov.hk/en-data/dataset/hk-epd-airteam-past24hr-pc-of-individual-air-quality-monitoring-stations"}],"sourceName":"Hong Kong","sourceType":"government","mobile":false}
{"date":{"utc":"2020-06-18T21:00:00.000Z","local":"2020-06-18T17:00:00-04:00"},"parameter":"so2","value":11.68,"unit":"µg/m³","location":"SM6 ","city":"Freirina","country":"CL","coordinates":{"latitude":-28.503649842345,"longitude":-71.126531945122},"attribution":[{"name":"SINCA","url":"http://sinca.mma.gob.cl/"},{"name":"GUACOLDA ENERGIA S.A."}],"sourceName":"Chile - SINCA","sourceType":"government","mobile":false}
{"date":{"utc":"2020-06-18T19:00:00.000Z","local":"2020-06-18T21:00:00+02:00"},"parameter":"no2","value":35,"unit":"µg/m³","averagingPeriod":{"value":1,"unit":"hours"},"location":"Rotterdam Noord -Statenweg","city":"Rotterdam Noord ","country":"NL","coordinates":{"latitude":51.9271,"longitude":4.46134},"attribution":[{"name":"RIVM","url":"http://www.lml.rivm.nl/"},{"name":"DCMR"}],"sourceName":"Netherlands","sourceType":"government","mobile":false}
{"date":{"utc":"2020-06-18T20:00:00.000Z","local":"2020-06-19T04:00:00+08:00"},"parameter":"no2","value":42.3,"unit":"µg/m³","averagingPeriod":{"value":1,"unit":"hours"},"location":"Kwai Chung","city":"New Territories","country":"HK","coordinates":{"longitude":114.12972222222221,"latitude":22.357222222222223},"attribution":[{"name":"Environmental Protection Department","url":"https://data.gov.hk/en-data/dataset/hk-epd-airteam-past24hr-pc-of-individual-air-quality-monitoring-stations"}],"sourceName":"Hong Kong","sourceType":"government","mobile":false}
{"date":{"utc":"2020-06-18T19:00:00.000Z","local":"2020-06-18T21:00:00+02:00"},"parameter":"no2","value":22.7,"unit":"µg/m³","averagingPeriod":{"value":1,"unit":"hours"},"location":"Schiedam-Alphons Arienstraat","city":"Schiedam","country":"NL","coordinates":{"latitude":51.9214,"longitude":4.40139},"attribution":[{"name":"RIVM","url":"http://www.lml.rivm.nl/"},{"name":"DCMR"}],"sourceName":"Netherlands","sourceType":"government","mobile":false}
{"date":{"utc":"2020-06-18T21:00:00.000Z","local":"2020-06-18T17:00:00-04:00"},"parameter":"so2","value":8.96,"unit":"µg/m³","location":"SM7 ","city":"Freirina","country":"CL","coordinates":{"latitude":-28.497964596656,"longitude":-71.096081461655},"attribution":[{"name":"SINCA","url":"http://sinca.mma.gob.cl/"},{"name":"GUACOLDA ENERGIA S.A."}],"sourceName":"Chile - SINCA","sourceType":"government","mobile":false}
{"date":{"utc":"2020-06-18T20:00:00.000Z","local":"2020-06-19T04:00:00+08:00"},"parameter":"o3","value":3.2,"unit":"µg/m³","averagingPeriod":{"value":1,"unit":"hours"},"location":"Kwai Chung","city":"New Territories","country":"HK","coordinates":{"longitude":114.12972222222221,"latitude":22.357222222222223},"attribution":[{"name":"Environmental Protection Department","url":"https://data.gov.hk/en-data/dataset/hk-epd-airteam-past24hr-pc-of-individual-air-quality-monitoring-stations"}],"sourceName":"Hong Kong","sourceType":"government","mobile":false}
{"date":{"utc":"2020-06-18T21:00:00.000Z","local":"2020-06-18T17:00:00-04:00"},"parameter":"so2","value":17.56,"unit":"µg/m³","location":"SM8 ","city":"Freirina","country":"CL","coordinates":{"latitude":-28.507409284386,"longitude":-71.081571711987},"attribution":[{"name":"SINCA","url":"http://sinca.mma.gob.cl/"},{"name":"GUACOLDA ENERGIA S.A."}],"sourceName":"Chile - SINCA","sourceType":"government","mobile":false}
{"date":{"utc":"2020-06-18T19:00:00.000Z","local":"2020-06-18T21:00:00+02:00"},"parameter":"no2","value":25.4,"unit":"µg/m³","averagingPeriod":{"value":1,"unit":"hours"},"location":"Maassluis-Kwartellaan","city":"Maassluis","country":"NL","coordinates":{"latitude":51.932,"longitude":4.22802},"attribution":[{"name":"RIVM","url":"http://www.lml.rivm.nl/"},{"name":"DCMR"}],"sourceName":"Netherlands","sourceType":"government","mobile":false}
{"date":{"utc":"2020-06-18T20:00:00.000Z","local":"2020-06-19T04:00:00+08:00"},"parameter":"so2","value":10.2,"unit":"µg/m³","averagingPeriod":{"value":1,"unit":"hours"},"location":"Kwai Chung","city":"New Territories","country":"HK","coordinates":{"longitude":114.12972222222221,"latitude":22.357222222222223},"attribution":[{"name":"Environmental Protection Department","url":"https://data.gov.hk/en-data/dataset/hk-epd-airteam-past24hr-pc-of-individual-air-quality-monitoring-stations"}],"sourceName":"Hong Kong","sourceType":"government","mobile":false}
{"date":{"utc":"2020-06-18T19:00:00.000Z","local":"2020-06-18T21:00:00+02:00"},"parameter":"no2","value":14.9,"unit":"µg/m³","averagingPeriod":{"value":1,"unit":"hours"},"location":"Hoek v. Holland-Berghaven","city":"Hoek v. Holland","country":"NL","coordinates":{"latitude":51.9778,"longitude":4.12194},"attribution":[{"name":"RIVM","url":"http://www.lml.rivm.nl/"},{"name":"DCMR"}],"sourceName":"Netherlands","sourceType":"government","mobile":false}
{"date":{"utc":"2020-06-18T21:00:00.000Z","local":"2020-06-18T17:00:00-04:00"},"parameter":"pm25","value":5.47,"unit":"µg/m³","location":"EME M","city":"Huasco","country":"CL","coordinates":{"latitude":-28.470340876399,"longitude":-71.218828907093},"attribution":[{"name":"SINCA","url":"http://sinca.mma.gob.cl/"},{"name":"GUACOLDA ENERGIA S.A."}],"sourceName":"Chile - SINCA","sourceType":"government","mobile":false}
{"date":{"utc":"2020-06-18T20:00:00.000Z","local":"2020-06-19T04:00:00+08:00"},"parameter":"pm10","value":5,"unit":"µg/m³","averagingPeriod":{"value":1,"unit":"hours"},"location":"Kwai Chung","city":"New Territories","country":"HK","coordinates":{"longitude":114.12972222222221,"latitude":22.357222222222223},"attribution":[{"name":"Environmental Protection Department","url":"https://data.gov.hk/en-data/dataset/hk-epd-airteam-past24hr-pc-of-individual-air-quality-monitoring-stations"}],"sourceName":"Hong Kong","sourceType":"government","mobile":false}
{"date":{"utc":"2020-06-18T20:00:00.000Z","local":"2020-06-18T16:00:00-04:00"},"parameter":"no2","value":22.83,"unit":"µg/m³","location":"EME M","city":"Huasco","country":"CL","coordinates":{"latitude":-28.470340876399,"longitude":-71.218828907093},"attribution":[{"name":"SINCA","url":"http://sinca.mma.gob.cl/"},{"name":"GUACOLDA ENERGIA S.A."}],"sourceName":"Chile - SINCA","sourceType":"government","mobile":false}
{"date":{"utc":"2020-06-18T19:00:00.000Z","local":"2020-06-18T21:00:00+02:00"},"parameter":"no2","value":13,"unit":"µg/m³","averagingPeriod":{"value":1,"unit":"hours"},"location":"Amsterdam-Nieuwendammerdijk","city":"Amsterdam","country":"NL","coordinates":{"latitude":52.3893,"longitude":4.94382},"attribution":[{"name":"RIVM","url":"http://www.lml.rivm.nl/"},{"name":"GGD A'dam"}],"sourceName":"Netherlands","sourceType":"government","mobile":false}
{"date":{"utc":"2020-06-18T20:00:00.000Z","local":"2020-06-19T04:00:00+08:00"},"parameter":"pm25","value":2.5,"unit":"µg/m³","averagingPeriod":{"value":1,"unit":"hours"},"location":"Kwai Chung","city":"New Territories","country":"HK","coordinates":{"longitude":114.12972222222221,"latitude":22.357222222222223},"attribution":[{"name":"Environmental Protection Department","url":"https://data.gov.hk/en-data/dataset/hk-epd-airteam-past24hr-pc-of-individual-air-quality-monitoring-stations"}],"sourceName":"Hong Kong","sourceType":"government","mobile":false}
{"date":{"utc":"2020-06-18T19:00:00.000Z","local":"2020-06-18T21:00:00+02:00"},"parameter":"no2","value":30.9,"unit":"µg/m³","averagingPeriod":{"value":1,"unit":"hours"},"location":"Amsterdam-Einsteinweg","city":"Amsterdam","country":"NL","coordinates":{"latitude":52.3813,"longitude":4.84523},"attribution":[{"name":"RIVM","url":"http://www.lml.rivm.nl/"},{"name":"GGD A'dam"}],"sourceName":"Netherlands","sourceType":"government","mobile":false}
{"date":{"utc":"2020-06-18T20:00:00.000Z","local":"2020-06-18T16:00:00-04:00"},"parameter":"so2","value":16.99,"unit":"µg/m³","location":"EME M","city":"Huasco","country":"CL","coordinates":{"latitude":-28.470340876399,"longitude":-71.218828907093},"attribution":[{"name":"SINCA","url":"http://sinca.mma.gob.cl/"},{"name":"GUACOLDA ENERGIA S.A."}],"sourceName":"Chile - SINCA","sourceType":"government","mobile":false}
{"date":{"utc":"2020-06-18T20:00:00.000Z","local":"2020-06-19T04:00:00+08:00"},"parameter":"no2","value":13.6,"unit":"µg/m³","averagingPeriod":{"value":1,"unit":"hours"},"location":"Tsuen Wan","city":"New Territories","country":"HK","coordinates":{"longitude":114.11444444444444,"latitude":22.371666666666666},"attribution":[{"name":"Environmental Protection Department","url":"https://data.gov.hk/en-data/dataset/hk-epd-airteam-past24hr-pc-of-individual-air-quality-monitoring-stations"}],"sourceName":"Hong Kong","sourceType":"government","mobile":false}
{"date":{"utc":"2020-06-18T21:00:00.000Z","local":"2020-06-18T17:00:00-04:00"},"parameter":"pm25","value":13.94,"unit":"µg/m³","location":"EME F","city":"Huasco","country":"CL","coordinates":{"latitude":-28.466423001884,"longitude":-71.221554279327},"attribution":[{"name":"SINCA","url":"http://sinca.mma.gob.cl/"},{"name":"GUACOLDA ENERGIA S.A."}],"sourceName":"Chile - SINCA","sourceType":"government","mobile":false}
{"date":{"utc":"2020-06-18T19:00:00.000Z","local":"2020-06-18T21:00:00+02:00"},"parameter":"no2","value":35.7,"unit":"µg/m³","averagingPeriod":{"value":1,"unit":"hours"},"location":"Amsterdam-Van Diemenstraat","city":"Amsterdam","country":"NL","coordinates":{"latitude":52.39,"longitude":4.88781},"attribution":[{"name":"RIVM","url":"http://www.lml.rivm.nl/"},{"name":"GGD A'dam"}],"sourceName":"Netherlands","sourceType":"government","mobile":false}
{"date":{"utc":"2020-06-18T20:00:00.000Z","local":"2020-06-19T04:00:00+08:00"},"parameter":"o3","value":24.4,"unit":"µg/m³","averagingPeriod":{"value":1,"unit":"hours"},"location":"Tsuen Wan","city":"New Territories","country":"HK","coordinates":{"longitude":114.11444444444444,"latitude":22.371666666666666},"attribution":[{"name":"Environmental Protection Department","url":"https://data.gov.hk/en-data/dataset/hk-epd-airteam-past24hr-pc-of-individual-air-quality-monitoring-stations"}],"sourceName":"Hong Kong","sourceType":"government","mobile":false}
{"date":{"utc":"2020-06-18T19:00:00.000Z","local":"2020-06-18T21:00:00+02:00"},"parameter":"no2","value":11.2,"unit":"µg/m³","averagingPeriod":{"value":1,"unit":"hours"},"location":"Amsterdam-Vondelpark","city":"Amsterdam","country":"NL","coordinates":{"latitude":52.3597,"longitude":4.86621},"attribution":[{"name":"RIVM","url":"http://www.lml.rivm.nl/"},{"name":"GGD A'dam"}],"sourceName":"Netherlands","sourceType":"government","mobile":false}
{"date":{"utc":"2020-06-18T20:00:00.000Z","local":"2020-06-18T16:00:00-04:00"},"parameter":"o3","value":10.85,"unit":"µg/m³","location":"EME F","city":"Huasco","country":"CL","coordinates":{"latitude":-28.466423001884,"longitude":-71.221554279327},"attribution":[{"name":"SINCA","url":"http://sinca.mma.gob.cl/"},{"name":"GUACOLDA ENERGIA S.A."}],"sourceName":"Chile - SINCA","sourceType":"government","mobile":false}
{"date":{"utc":"2020-06-18T20:00:00.000Z","local":"2020-06-19T04:00:00+08:00"},"parameter":"so2","value":4.9,"unit":"µg/m³","averagingPeriod":{"value":1,"unit":"hours"},"location":"Tsuen Wan","city":"New Territories","country":"HK","coordinates":{"longitude":114.11444444444444,"latitude":22.371666666666666},"attribution":[{"name":"Environmental Protection Department","url":"https://data.gov.hk/en-data/dataset/hk-epd-airteam-past24hr-pc-of-individual-air-quality-monitoring-stations"}],"sourceName":"Hong Kong","sourceType":"government","mobile":false}
{"date":{"utc":"2020-06-18T20:00:00.000Z","local":"2020-06-18T16:00:00-04:00"},"parameter":"co","value":436.9,"unit":"µg/m³","location":"EME F","city":"Huasco","country":"CL","coordinates":{"latitude":-28.466423001884,"longitude":-71.221554279327},"attribution":[{"name":"SINCA","url":"http://sinca.mma.gob.cl/"},{"name":"GUACOLDA ENERGIA S.A."}],"sourceName":"Chile - SINCA","sourceType":"government","mobile":false}
{"date":{"utc":"2020-06-18T19:00:00.000Z","local":"2020-06-18T21:00:00+02:00"},"parameter":"no2","value":20.8,"unit":"µg/m³","averagingPeriod":{"value":1,"unit":"hours"},"location":"Amsterdam-Stadhouderskade","city":"Amsterdam","country":"NL","coordinates":{"latitude":52.358,"longitude":4.8997},"attribution":[{"name":"RIVM","url":"http://www.lml.rivm.nl/"},{"name":"GGD A'dam"}],"sourceName":"Netherlands","sourceType":"government","mobile":false}
{"date":{"utc":"2020-06-18T20:00:00.000Z","local":"2020-06-19T04:00:00+08:00"},"parameter":"co","value":306.8,"unit":"µg/m³","averagingPeriod":{"value":1,"unit":"hours"},"location":"Tsuen Wan","city":"New Territories","country":"HK","coordinates":{"longitude":114.11444444444444,"latitude":22.371666666666666},"attribution":[{"name":"Environmental Protection Department","url":"https://data.gov.hk/en-data/dataset/hk-epd-airteam-past24hr-pc-of-individual-air-quality-monitoring-stations"}],"sourceName":"Hong Kong","sourceType":"government","mobile":false}
{"date":{"utc":"2020-06-18T19:00:00.000Z","local":"2020-06-18T21:00:00+02:00"},"parameter":"no2","value":17.4,"unit":"µg/m³","averagingPeriod":{"value":1,"unit":"hours"},"location":"Amsterdam-Oude Schans","city":"Amsterdam","country":"NL","coordinates":{"latitude":52.3721,"longitude":4.9044},"attribution":[{"name":"RIVM","url":"http://www.lml.rivm.nl/"},{"name":"GGD A'dam"}],"sourceName":"Netherlands","sourceType":"government","mobile":false}
{"date":{"utc":"2020-06-18T20:00:00.000Z","local":"2020-06-18T16:00:00-04:00"},"parameter":"no2","value":30.36,"unit":"µg/m³","location":"EME F","city":"Huasco","country":"CL","coordinates":{"latitude":-28.466423001884,"longitude":-71.221554279327},"attribution":[{"name":"SINCA","url":"http://sinca.mma.gob.cl/"},{"name":"GUACOLDA ENERGIA S.A."}],"sourceName":"Chile - SINCA","sourceType":"government","mobile":false}
{"date":{"utc":"2020-06-18T20:00:00.000Z","local":"2020-06-19T04:00:00+08:00"},"parameter":"pm10","value":8.2,"unit":"µg/m³","averagingPeriod":{"value":1,"unit":"hours"},"location":"Tsuen Wan","city":"New Territories","country":"HK","coordinates":{"longitude":114.11444444444444,"latitude":22.371666666666666},"attribution":[{"name":"Environmental Protection Department","url":"https://data.gov.hk/en-data/dataset/hk-epd-airteam-past24hr-pc-of-individual-air-quality-monitoring-stations"}],"sourceName":"Hong Kong","sourceType":"government","mobile":false}
{"date":{"utc":"2020-06-18T20:00:00.000Z","local":"2020-06-18T16:00:00-04:00"},"parameter":"so2","value":3.71,"unit":"µg/m³","location":"EME F","city":"Huasco","country":"CL","coordinates":{"latitude":-28.466423001884,"longitude":-71.221554279327},"attribution":[{"name":"SINCA","url":"http://sinca.mma.gob.cl/"},{"name":"GUACOLDA ENERGIA S.A."}],"sourceName":"Chile - SINCA","sourceType":"government","mobile":false}
{"date":{"utc":"2020-06-18T19:00:00.000Z","local":"2020-06-18T21:00:00+02:00"},"parameter":"no2","value":26.3,"unit":"µg/m³","averagingPeriod":{"value":1,"unit":"hours"},"location":"Amsterdam-Jan van Galenstraat","city":"Amsterdam","country":"NL","coordinates":{"latitude":52.3748,"longitude":4.86032},"attribution":[{"name":"RIVM","url":"http://www.lml.rivm.nl/"},{"name":"GGD A'dam"}],"sourceName":"Netherlands","sourceType":"government","mobile":false}
{"date":{"utc":"2020-06-18T20:00:00.000Z","local":"2020-06-19T04:00:00+08:00"},"parameter":"pm25","value":6.5,"unit":"µg/m³","averagingPeriod":{"value":1,"unit":"hours"},"location":"Tsuen Wan","city":"New Territories","country":"HK","coordinates":{"longitude":114.11444444444444,"latitude":22.371666666666666},"attribution":[{"name":"Environmental Protection Department","url":"https://data.gov.hk/en-data/dataset/hk-epd-airteam-past24hr-pc-of-individual-air-quality-monitoring-stations"}],"sourceName":"Hong Kong","sourceType":"government","mobile":false}
{"date":{"utc":"2020-06-18T19:00:00.000Z","local":"2020-06-18T21:00:00+02:00"},"parameter":"no2","value":12.7,"unit":"µg/m³","averagingPeriod":{"value":1,"unit":"hours"},"location":"Amsterdam-Kantershof (Zuid Oost)","city":"Amsterdam","country":"NL","coordinates":{"latitude":52.3207,"longitude":4.9884},"attribution":[{"name":"RIVM","url":"http://www.lml.rivm.nl/"},{"name":"GGD A'dam"}],"sourceName":"Netherlands","sourceType":"government","mobile":false}
{"date":{"utc":"2020-06-18T20:00:00.000Z","local":"2020-06-19T04:00:00+08:00"},"parameter":"no2","value":13.7,"unit":"µg/m³","averagingPeriod":{"value":1,"unit":"hours"},"location":"Tseung Kwan O","city":"Sai Kung","country":"HK","coordinates":{"longitude":114.25944444444444,"latitude":22.317777777777778},"attribution":[{"name":"Environmental Protection Department","url":"https://data.gov.hk/en-data/dataset/hk-epd-airteam-past24hr-pc-of-individual-air-quality-monitoring-stations"}],"sourceName":"Hong Kong","sourceType":"government","mobile":false}
{"date":{"utc":"2020-06-18T19:00:00.000Z","local":"2020-06-18T21:00:00+02:00"},"parameter":"no2","value":6.1,"unit":"µg/m³","averagingPeriod":{"value":1,"unit":"hours"},"location":"Amsterdam-Sportpark Ookmeer (Osdorp)","city":"Amsterdam","country":"NL","coordinates":{"latitude":52.3668,"longitude":4.79334},"attribution":[{"name":"RIVM","url":"http://www.lml.rivm.nl/"},{"name":"GGD A'dam"}],"sourceName":"Netherlands","sourceType":"government","mobile":false}
{"date":{"utc":"2020-06-18T20:00:00.000Z","local":"2020-06-19T04:00:00+08:00"},"parameter":"o3","value":33.8,"unit":"µg/m³","averagingPeriod":{"value":1,"unit":"hours"},"location":"Tseung Kwan O","city":"Sai Kung","country":"HK","coordinates":{"longitude":114.25944444444444,"latitude":22.317777777777778},"attribution":[{"name":"Environmental Protection Department","url":"https://data.gov.hk/en-data/dataset/hk-epd-airteam-past24hr-pc-of-individual-air-quality-monitoring-stations"}],"sourceName":"Hong Kong","sourceType":"government","mobile":false}
{"date":{"utc":"2020-06-18T19:00:00.000Z","local":"2020-06-18T21:00:00+02:00"},"parameter":"no2","value":13.7,"unit":"µg/m³","averagingPeriod":{"value":1,"unit":"hours"},"location":"Zaandam-Wagenschotpad","city":"Zaandam","country":"NL","coordinates":{"latitude":52.448,"longitude":4.81671},"attribution":[{"name":"RIVM","url":"http://www.lml.rivm.nl/"},{"name":"GGD A'dam"}],"sourceName":"Netherlands","sourceType":"government","mobile":false}
{"date":{"utc":"2020-06-18T20:00:00.000Z","local":"2020-06-19T04:00:00+08:00"},"parameter":"so2","value":4.4,"unit":"µg/m³","averagingPeriod":{"value":1,"unit":"hours"},"location":"Tseung Kwan O","city":"Sai Kung","country":"HK","coordinates":{"longitude":114.25944444444444,"latitude":22.317777777777778},"attribution":[{"name":"Environmental Protection Department","url":"https://data.gov.hk/en-data/dataset/hk-epd-airteam-past24hr-pc-of-individual-air-quality-monitoring-stations"}],"sourceName":"Hong Kong","sourceType":"government","mobile":false}
{"date":{"utc":"2020-06-18T19:00:00.000Z","local":"2020-06-18T21:00:00+02:00"},"parameter":"no2","value":6,"unit":"µg/m³","averagingPeriod":{"value":1,"unit":"hours"},"location":"Amsterdam-Spaarnwoude","city":"Amsterdam","country":"NL","coordinates":{"latitude":52.3984,"longitude":4.72858},"attribution":[{"name":"RIVM","url":"http://www.lml.rivm.nl/"},{"name":"GGD A'dam"}],"sourceName":"Netherlands","sourceType":"government","mobile":false}
{"date":{"utc":"2020-06-18T20:00:00.000Z","local":"2020-06-19T04:00:00+08:00"},"parameter":"co","value":450.6,"unit":"µg/m³","averagingPeriod":{"value":1,"unit":"hours"},"location":"Tseung Kwan O","city":"Sai Kung","country":"HK","coordinates":{"longitude":114.25944444444444,"latitude":22.317777777777778},"attribution":[{"name":"Environmental Protection Department","url":"https://data.gov.hk/en-data/dataset/hk-epd-airteam-past24hr-pc-of-individual-air-quality-monitoring-stations"}],"sourceName":"Hong Kong","sourceType":"government","mobile":false}
{"date":{"utc":"2020-06-18T19:00:00.000Z","local":"2020-06-18T21:00:00+02:00"},"parameter":"no2","value":-999,"unit":"µg/m³","averagingPeriod":{"value":1,"unit":"hours"},"location":"Amsterdam-Hoogtij","city":"Amsterdam","country":"NL","coordinates":{"latitude":52.428,"longitude":4.77348},"attribution":[{"name":"RIVM","url":"http://www.lml.rivm.nl/"},{"name":"GGD A'dam"}],"sourceName":"Netherlands","sourceType":"government","mobile":false}
{"date":{"utc":"2020-06-18T20:00:00.000Z","local":"2020-06-19T04:00:00+08:00"},"parameter":"pm10","value":12.8,"unit":"µg/m³","averagingPeriod":{"value":1,"unit":"hours"},"location":"Tseung Kwan O","city":"Sai Kung","country":"HK","coordinates":{"longitude":114.25944444444444,"latitude":22.317777777777778},"attribution":[{"name":"Environmental Protection Department","url":"https://data.gov.hk/en-data/dataset/hk-epd-airteam-past24hr-pc-of-individual-air-quality-monitoring-stations"}],"sourceName":"Hong Kong","sourceType":"government","mobile":false}
{"date":{"utc":"2020-06-18T19:00:00.000Z","local":"2020-06-18T21:00:00+02:00"},"parameter":"no2","value":8.93,"unit":"µg/m³","averagingPeriod":{"value":1,"unit":"hours"},"location":"Veldhoven-Europalaan","city":"Veldhoven","country":"NL","coordinates":{"latitude":51.4074,"longitude":5.39333},"attribution":[{"name":"RIVM","url":"http://www.lml.rivm.nl/"},{"name":"Gem. Veldhoven"}],"sourceName":"Netherlands","sourceType":"government","mobile":false}
{"date":{"utc":"2020-06-18T20:00:00.000Z","local":"2020-06-19T04:00:00+08:00"},"parameter":"pm25","value":5.7,"unit":"µg/m³","averagingPeriod":{"value":1,"unit":"hours"},"location":"Tseung Kwan O","city":"Sai Kung","country":"HK","coordinates":{"longitude":114.25944444444444,"latitude":22.317777777777778},"attribution":[{"name":"Environmental Protection Department","url":"https://data.gov.hk/en-data/dataset/hk-epd-airteam-past24hr-pc-of-individual-air-quality-monitoring-stations"}],"sourceName":"Hong Kong","sourceType":"government","mobile":false}
{"date":{"utc":"2020-06-18T19:00:00.000Z","local":"2020-06-18T21:00:00+02:00"},"parameter":"no2","value":15,"unit":"µg/m³","averagingPeriod":{"value":1,"unit":"hours"},"location":"Geleen-Asterstraat","city":"Geleen","country":"NL","coordinates":{"latitude":50.9844,"longitude":5.82223},"attribution":[{"name":"RIVM","url":"http://www.lml.rivm.nl/"},{"name":"Prov. Limburg"}],"sourceName":"Netherlands","sourceType":"government","mobile":false}
{"date":{"utc":"2020-06-18T20:00:00.000Z","local":"2020-06-19T04:00:00+08:00"},"parameter":"no2","value":8.8,"unit":"µg/m³","averagingPeriod":{"value":1,"unit":"hours"},"location":"Yuen Long","city":"New Territories","country":"HK","coordinates":{"longitude":114.02277777777778,"latitude":22.44527777777778},"attribution":[{"name":"Environmental Protection Department","url":"https://data.gov.hk/en-data/dataset/hk-epd-airteam-past24hr-pc-of-individual-air-quality-monitoring-stations"}],"sourceName":"Hong Kong","sourceType":"government","mobile":false}
{"date":{"utc":"2020-06-18T19:00:00.000Z","local":"2020-06-18T21:00:00+02:00"},"parameter":"no2","value":19,"unit":"µg/m³","averagingPeriod":{"value":1,"unit":"hours"},"location":"Maastricht-A2 Nassaulaan","city":"Maastricht","country":"NL","coordinates":{"latitude":50.8459,"longitude":5.71475},"attribution":[{"name":"RIVM","url":"http://www.lml.rivm.nl/"},{"name":"Prov. Limburg"}],"sourceName":"Netherlands","sourceType":"government","mobile":false}
{"date":{"utc":"2020-06-18T21:00:00.000Z","local":"2020-06-18T17:00:00-04:00"},"parameter":"pm25","value":7,"unit":"µg/m³","location":"Huasco Sivica","city":"Huasco","country":"CL","coordinates":{"latitude":-28.469998068842,"longitude":-71.219652562817},"attribution":[{"name":"SINCA","url":"http://sinca.mma.gob.cl/"},{"name":"Ministerio del Medio Ambiente"}],"sourceName":"Chile - SINCA","sourceType":"government","mobile":false}
{"date":{"utc":"2020-06-18T20:00:00.000Z","local":"2020-06-19T04:00:00+08:00"},"parameter":"o3","value":26.9,"unit":"µg/m³","averagingPeriod":{"value":1,"unit":"hours"},"location":"Yuen Long","city":"New Territories","country":"HK","coordinates":{"longitude":114.02277777777778,"latitude":22.44527777777778},"attribution":[{"name":"Environmental Protection Department","url":"https://data.gov.hk/en-data/dataset/hk-epd-airteam-past24hr-pc-of-individual-air-quality-monitoring-stations"}],"sourceName":"Hong Kong","sourceType":"government","mobile":false}
{"date":{"utc":"2020-06-18T19:00:00.000Z","local":"2020-06-18T21:00:00+02:00"},"parameter":"no2","value":12.49,"unit":"µg/m³","averagingPeriod":{"value":1,"unit":"hours"},"location":"Fijnaart-Zwingelspaansedijk","city":"Fijnaart","country":"NL","coordinates":{"latitude":51.6537,"longitude":4.51527},"attribution":[{"name":"RIVM","url":"http://www.lml.rivm.nl/"},{"name":"Prov. N-Brabant"}],"sourceName":"Netherlands","sourceType":"government","mobile":false}
{"date":{"utc":"2020-06-18T20:00:00.000Z","local":"2020-06-19T04:00:00+08:00"},"parameter":"so2","value":5,"unit":"µg/m³","averagingPeriod":{"value":1,"unit":"hours"},"location":"Yuen Long","city":"New Territories","country":"HK","coordinates":{"longitude":114.02277777777778,"latitude":22.44527777777778},"attribution":[{"name":"Environmental Protection Department","url":"https://data.gov.hk/en-data/dataset/hk-epd-airteam-past24hr-pc-of-individual-air-quality-monitoring-stations"}],"sourceName":"Hong Kong","sourceType":"government","mobile":false}
{"date":{"utc":"2020-06-18T19:00:00.000Z","local":"2020-06-18T21:00:00+02:00"},"parameter":"no2","value":28,"unit":"µg/m³","averagingPeriod":{"value":1,"unit":"hours"},"location":"Zaanstad-Hemkade","city":"Zaanstad","country":"NL","coordinates":{"latitude":52.4202,"longitude":4.83206},"attribution":[{"name":"RIVM","url":"http://www.lml.rivm.nl/"},{"name":"Prov. N-Holland"}],"sourceName":"Netherlands","sourceType":"government","mobile":false}
{"date":{"utc":"2020-06-18T20:00:00.000Z","local":"2020-06-19T04:00:00+08:00"},"parameter":"co","value":313.1,"unit":"µg/m³","averagingPeriod":{"value":1,"unit":"hours"},"location":"Yuen Long","city":"New Territories","country":"HK","coordinates":{"longitude":114.02277777777778,"latitude":22.44527777777778},"attribution":[{"name":"Environmental Protection Department","url":"https://data.gov.hk/en-data/dataset/hk-epd-airteam-past24hr-pc-of-individual-air-quality-monitoring-stations"}],"sourceName":"Hong Kong","sourceType":"government","mobile":false}
{"date":{"utc":"2020-06-18T19:00:00.000Z","local":"2020-06-18T21:00:00+02:00"},"parameter":"no2","value":60.2,"unit":"µg/m³","averagingPeriod":{"value":1,"unit":"hours"},"location":"IJmuiden-Kanaaldijk","city":"IJmuiden","country":"NL","coordinates":{"latitude":52.463,"longitude":4.60184},"attribution":[{"name":"RIVM","url":"http://www.lml.rivm.nl/"},{"name":"Prov. N-Holland"}],"sourceName":"Netherlands","sourceType":"government","mobile":false}
{"date":{"utc":"2020-06-18T20:00:00.000Z","local":"2020-06-18T16:00:00-04:00"},"parameter":"pm10","value":14,"unit":"µg/m³","location":"Cuncumen ","city":"Salamanca","country":"CL","coordinates":{"latitude":-31.889278312544,"longitude":-70.629311769684},"attribution":[{"name":"SINCA","url":"http://sinca.mma.gob.cl/"},{"name":"Ministerio del Medio Ambiente"}],"sourceName":"Chile - SINCA","sourceType":"government","mobile":false}
{"date":{"utc":"2020-06-18T20:00:00.000Z","local":"2020-06-19T04:00:00+08:00"},"parameter":"pm10","value":5.6,"unit":"µg/m³","averagingPeriod":{"value":1,"unit":"hours"},"location":"Yuen Long","city":"New Territories","country":"HK","coordinates":{"longitude":114.02277777777778,"latitude":22.44527777777778},"attribution":[{"name":"Environmental Protection Department","url":"https://data.gov.hk/en-data/dataset/hk-epd-airteam-past24hr-pc-of-individual-air-quality-monitoring-stations"}],"sourceName":"Hong Kong","sourceType":"government","mobile":false}
{"date":{"utc":"2020-06-18T19:00:00.000Z","local":"2020-06-18T21:00:00+02:00"},"parameter":"no2","value":34.2,"unit":"µg/m³","averagingPeriod":{"value":1,"unit":"hours"},"location":"Wijk aan Zee-Burgemeester Rothestraat","city":"Wijk aan Zee","country":"NL","coordinates":{"latitude":52.494,"longitude":4.60199},"attribution":[{"name":"RIVM","url":"http://www.lml.rivm.nl/"},{"name":"Prov. N-Holland"}],"sourceName":"Netherlands","sourceType":"government","mobile":false}
{"date":{"utc":"2020-06-18T20:00:00.000Z","local":"2020-06-19T04:00:00+08:00"},"parameter":"no2","value":10.3,"unit":"µg/m³","averagingPeriod":{"value":1,"unit":"hours"},"location":"Tuen Mun","city":"N.T.","country":"HK","coordinates":{"longitude":113.97666666666667,"latitude":22.391111111111112},"attribution":[{"name":"Environmental Protection Department","url":"https://data.gov.hk/en-data/dataset/hk-epd-airteam-past24hr-pc-of-individual-air-quality-monitoring-stations"}],"sourceName":"Hong Kong","sourceType":"government","mobile":false}
{"date":{"utc":"2020-06-18T21:00:00.000Z","local":"2020-06-18T17:00:00-04:00"},"parameter":"pm25","value":8,"unit":"µg/m³","location":"La Serena","city":"Coquimbo","country":"CL","coordinates":{"latitude":-29.933006518748,"longitude":-71.261966365967},"attribution":[{"name":"SINCA","url":"http://sinca.mma.gob.cl/"},{"name":"Ministerio del Medio Ambiente"}],"sourceName":"Chile - SINCA","sourceType":"government","mobile":false}
{"date":{"utc":"2020-06-18T19:00:00.000Z","local":"2020-06-18T21:00:00+02:00"},"parameter":"no2","value":11,"unit":"µg/m³","averagingPeriod":{"value":1,"unit":"hours"},"location":"Badhoevedorp-Sloterweg","city":"Badhoevedorp","country":"NL","coordinates":{"latitude":52.334,"longitude":4.77401},"attribution":[{"name":"RIVM","url":"http://www.lml.rivm.nl/"},{"name":"Prov. N-Holland"}],"sourceName":"Netherlands","sourceType":"government","mobile":false}
{"date":{"utc":"2020-06-18T20:00:00.000Z","local":"2020-06-19T04:00:00+08:00"},"parameter":"o3","value":26.8,"unit":"µg/m³","averagingPeriod":{"value":1,"unit":"hours"},"location":"Tuen Mun","city":"N.T.","country":"HK","coordinates":{"longitude":113.97666666666667,"latitude":22.391111111111112},"attribution":[{"name":"Environmental Protection Department","url":"https://data.gov.hk/en-data/dataset/hk-epd-airteam-past24hr-pc-of-individual-air-quality-monitoring-stations"}],"sourceName":"Hong Kong","sourceType":"government","mobile":false}
{"date":{"utc":"2020-06-18T19:00:00.000Z","local":"2020-06-18T21:00:00+02:00"},"parameter":"no2","value":6.2,"unit":"µg/m³","averagingPeriod":{"value":1,"unit":"hours"},"location":"Hoofddorp-Hoofdweg","city":"Hoofddorp","country":"NL","coordinates":{"latitude":52.3275,"longitude":4.71501},"attribution":[{"name":"RIVM","url":"http://www.lml.rivm.nl/"},{"name":"Prov. N-Holland"}],"sourceName":"Netherlands","sourceType":"government","mobile":false}
{"date":{"utc":"2020-06-18T20:00:00.000Z","local":"2020-06-19T04:00:00+08:00"},"parameter":"so2","value":0.4,"unit":"µg/m³","averagingPeriod":{"value":1,"unit":"hours"},"location":"Tuen Mun","city":"N.T.","country":"HK","coordinates":{"longitude":113.97666666666667,"latitude":22.391111111111112},"attribution":[{"name":"Environmental Protection Department","url":"https://data.gov.hk/en-data/dataset/hk-epd-airteam-past24hr-pc-of-individual-air-quality-monitoring-stations"}],"sourceName":"Hong Kong","sourceType":"government","mobile":false}
{"date":{"utc":"2020-06-18T19:00:00.000Z","local":"2020-06-18T21:00:00+02:00"},"parameter":"no2","value":20.1,"unit":"µg/m³","averagingPeriod":{"value":1,"unit":"hours"},"location":"Oude Meer-Aalsmeerderdijk","city":"Oude Meer","country":"NL","coordinates":{"latitude":52.28,"longitude":4.77077},"attribution":[{"name":"RIVM","url":"http://www.lml.rivm.nl/"},{"name":"Prov. N-Holland"}],"sourceName":"Netherlands","sourceType":"government","mobile":false}
{"date":{"utc":"2020-06-18T20:00:00.000Z","local":"2020-06-19T04:00:00+08:00"},"parameter":"co","value":323.1,"unit":"µg/m³","averagingPeriod":{"value":1,"unit":"hours"},"location":"Tuen Mun","city":"N.T.","country":"HK","coordinates":{"longitude":113.97666666666667,"latitude":22.391111111111112},"attribution":[{"name":"Environmental Protection Department","url":"https://data.gov.hk/en-data/dataset/hk-epd-airteam-past24hr-pc-of-individual-air-quality-monitoring-stations"}],"sourceName":"Hong Kong","sourceType":"government","mobile":false}
{"date":{"utc":"2020-06-18T19:00:00.000Z","local":"2020-06-18T21:00:00+02:00"},"parameter":"no2","value":38.59,"unit":"µg/m³","averagingPeriod":{"value":1,"unit":"hours"},"location":"Arnhem-Pleijroute Velperbroek","city":"Arnhem","country":"NL","attribution":[{"name":"RIVM","url":"http://www.lml.rivm.nl/"},{"name":"Prov.Gelderland"}],"sourceName":"Netherlands","sourceType":"government","mobile":false}
{"date":{"utc":"2020-06-18T20:00:00.000Z","local":"2020-06-19T04:00:00+08:00"},"parameter":"pm10","value":12.8,"unit":"µg/m³","averagingPeriod":{"value":1,"unit":"hours"},"location":"Tuen Mun","city":"N.T.","country":"HK","coordinates":{"longitude":113.97666666666667,"latitude":22.391111111111112},"attribution":[{"name":"Environmental Protection Department","url":"https://data.gov.hk/en-data/dataset/hk-epd-airteam-past24hr-pc-of-individual-air-quality-monitoring-stations"}],"sourceName":"Hong Kong","sourceType":"government","mobile":false}
{"date":{"utc":"2020-06-18T19:00:00.000Z","local":"2020-06-18T21:00:00+02:00"},"parameter":"no2","value":6.79,"unit":"µg/m³","averagingPeriod":{"value":1,"unit":"hours"},"location":"Posterholt-Vlodropperweg","city":"Posterholt","country":"NL","coordinates":{"latitude":51.1192,"longitude":6.0424},"attribution":[{"name":"RIVM","url":"http://www.lml.rivm.nl/"}],"sourceName":"Netherlands","sourceType":"government","mobile":false}
{"date":{"utc":"2020-06-18T20:00:00.000Z","local":"2020-06-19T04:00:00+08:00"},"parameter":"pm25","value":6,"unit":"µg/m³","averagingPeriod":{"value":1,"unit":"hours"},"location":"Tuen Mun","city":"N.T.","country":"HK","coordinates":{"longitude":113.97666666666667,"latitude":22.391111111111112},"attribution":[{"name":"Environmental Protection Department","url":"https://data.gov.hk/en-data/dataset/hk-epd-airteam-past24hr-pc-of-individual-air-quality-monitoring-stations"}],"sourceName":"Hong Kong","sourceType":"government","mobile":false}
{"date":{"utc":"2020-06-18T19:00:00.000Z","local":"2020-06-18T21:00:00+02:00"},"parameter":"no2","value":6.7,"unit":"µg/m³","averagingPeriod":{"value":1,"unit":"hours"},"location":"Vredepeel-Vredeweg","city":"Vredepeel","country":"NL","coordinates":{"latitude":51.5405,"longitude":5.85307},"attribution":[{"name":"RIVM","url":"http://www.lml.rivm.nl/"}],"sourceName":"Netherlands","sourceType":"government","mobile":false}
{"date":{"utc":"2020-06-18T20:00:00.000Z","local":"2020-06-19T04:00:00+08:00"},"parameter":"no2","value":3.7,"unit":"µg/m³","averagingPeriod":{"value":1,"unit":"hours"},"location":"Tung Chung","city":"New Territories","country":"HK","coordinates":{"longitude":113.94361111111111,"latitude":22.28888888888889},"attribution":[{"name":"Environmental Protection Department","url":"https://data.gov.hk/en-data/dataset/hk-epd-airteam-past24hr-pc-of-individual-air-quality-monitoring-stations"}],"sourceName":"Hong Kong","sourceType":"government","mobile":false}
{"date":{"utc":"2020-06-18T19:00:00.000Z","local":"2020-06-18T21:00:00+02:00"},"parameter":"no2","value":8.91,"unit":"µg/m³","averagingPeriod":{"value":1,"unit":"hours"},"location":"Wijnandsrade-Opfergeltstraat","city":"Wijnandsrade","country":"NL","coordinates":{"latitude":50.9023,"longitude":5.88175},"attribution":[{"name":"RIVM","url":"http://www.lml.rivm.nl/"}],"sourceName":"Netherlands","sourceType":"government","mobile":false}
{"date":{"utc":"2020-06-18T20:00:00.000Z","local":"2020-06-19T04:00:00+08:00"},"parameter":"o3","value":36.2,"unit":"µg/m³","averagingPeriod":{"value":1,"unit":"hours"},"location":"Tung Chung","city":"New Territories","country":"HK","coordinates":{"longitude":113.94361111111111,"latitude":22.28888888888889},"attribution":[{"name":"Environmental Protection Department","url":"https://data.gov.hk/en-data/dataset/hk-epd-airteam-past24hr-pc-of-individual-air-quality-monitoring-stations"}],"sourceName":"Hong Kong","sourceType":"government","mobile":false}
{"date":{"utc":"2020-06-18T19:00:00.000Z","local":"2020-06-18T21:00:00+02:00"},"parameter":"no2","value":19.11,"unit":"µg/m³","averagingPeriod":{"value":1,"unit":"hours"},"location":"Heerlen-Looierstraat","city":"Heerlen","country":"NL","coordinates":{"latitude":50.888,"longitude":5.9705},"attribution":[{"name":"RIVM","url":"http://www.lml.rivm.nl/"}],"sourceName":"Netherlands","sourceType":"government","mobile":false}
{"date":{"utc":"2020-06-18T20:00:00.000Z","local":"2020-06-19T04:00:00+08:00"},"parameter":"so2","value":0.8,"unit":"µg/m³","averagingPeriod":{"value":1,"unit":"hours"},"location":"Tung Chung","city":"New Territories","country":"HK","coordinates":{"longitude":113.94361111111111,"latitude":22.28888888888889},"attribution":[{"name":"Environmental Protection Department","url":"https://data.gov.hk/en-data/dataset/hk-epd-airteam-past24hr-pc-of-individual-air-quality-monitoring-stations"}],"sourceName":"Hong Kong","sourceType":"government","mobile":false}
{"date":{"utc":"2020-06-18T19:00:00.000Z","local":"2020-06-18T21:00:00+02:00"},"parameter":"no2","value":8.84,"unit":"µg/m³","averagingPeriod":{"value":1,"unit":"hours"},"location":"Heerlen-Jamboreepad","city":"Heerlen","country":"NL","coordinates":{"latitude":50.9003,"longitude":5.98685},"attribution":[{"name":"RIVM","url":"http://www.lml.rivm.nl/"}],"sourceName":"Netherlands","sourceType":"government","mobile":false}
{"date":{"utc":"2020-06-18T20:00:00.000Z","local":"2020-06-19T04:00:00+08:00"},"parameter":"co","value":152.7,"unit":"µg/m³","averagingPeriod":{"value":1,"unit":"hours"},"location":"Tung Chung","city":"New Territories","country":"HK","coordinates":{"longitude":113.94361111111111,"latitude":22.28888888888889},"attribution":[{"name":"Environmental Protection Department","url":"https://data.gov.hk/en-data/dataset/hk-epd-airteam-past24hr-pc-of-individual-air-quality-monitoring-stations"}],"sourceName":"Hong Kong","sourceType":"government","mobile":false}
{"date":{"utc":"2020-06-18T19:00:00.000Z","local":"2020-06-18T21:00:00+02:00"},"parameter":"no2","value":11.04,"unit":"µg/m³","averagingPeriod":{"value":1,"unit":"hours"},"location":"Biest Houtakker-Biestsestraat","city":"Biest Houtakker","country":"NL","coordinates":{"latitude":51.5184,"longitude":5.14845},"attribution":[{"name":"RIVM","url":"http://www.lml.rivm.nl/"}],"sourceName":"Netherlands","sourceType":"government","mobile":false}
{"date":{"utc":"2020-06-18T20:00:00.000Z","local":"2020-06-19T04:00:00+08:00"},"parameter":"pm10","value":5.1,"unit":"µg/m³","averagingPeriod":{"value":1,"unit":"hours"},"location":"Tung Chung","city":"New Territories","country":"HK","coordinates":{"longitude":113.94361111111111,"latitude":22.28888888888889},"attribution":[{"name":"Environmental Protection Department","url":"https://data.gov.hk/en-data/dataset/hk-epd-airteam-past24hr-pc-of-individual-air-quality-monitoring-stations"}],"sourceName":"Hong Kong","sourceType":"government","mobile":false}
{"date":{"utc":"2020-06-18T19:00:00.000Z","local":"2020-06-18T21:00:00+02:00"},"parameter":"no2","value":6.64,"unit":"µg/m³","averagingPeriod":{"value":1,"unit":"hours"},"location":"Huijbergen-Vennekenstraat","city":"Huijbergen","country":"NL","coordinates":{"latitude":51.4344,"longitude":4.35984},"attribution":[{"name":"RIVM","url":"http://www.lml.rivm.nl/"}],"sourceName":"Netherlands","sourceType":"government","mobile":false}
{"date":{"utc":"2020-06-18T20:00:00.000Z","local":"2020-06-19T04:00:00+08:00"},"parameter":"pm25","value":2,"unit":"µg/m³","averagingPeriod":{"value":1,"unit":"hours"},"location":"Tung Chung","city":"New Territories","country":"HK","coordinates":{"longitude":113.94361111111111,"latitude":22.28888888888889},"attribution":[{"name":"Environmental Protection Department","url":"https://data.gov.hk/en-data/dataset/hk-epd-airteam-past24hr-pc-of-individual-air-quality-monitoring-stations"}],"sourceName":"Hong Kong","sourceType":"government","mobile":false}
{"date":{"utc":"2020-06-18T19:00:00.000Z","local":"2020-06-18T21:00:00+02:00"},"parameter":"no2","value":21.6,"unit":"µg/m³","averagingPeriod":{"value":1,"unit":"hours"},"location":"Eindhoven-Genovevalaan","city":"Eindhoven","country":"NL","coordinates":{"latitude":51.4687,"longitude":5.47235},"attribution":[{"name":"RIVM","url":"http://www.lml.rivm.nl/"}],"sourceName":"Netherlands","sourceType":"government","mobile":false}
{"date":{"utc":"2020-06-18T20:00:00.000Z","local":"2020-06-19T04:00:00+08:00"},"parameter":"no2","value":22.8,"unit":"µg/m³","averagingPeriod":{"value":1,"unit":"hours"},"location":"Tai Po","city":"New Territories","country":"HK","coordinates":{"longitude":114.16444444444446,"latitude":22.450833333333332},"attribution":[{"name":"Environmental Protection Department","url":"https://data.gov.hk/en-data/dataset/hk-epd-airteam-past24hr-pc-of-individual-air-quality-monitoring-stations"}],"sourceName":"Hong Kong","sourceType":"government","mobile":false}
{"date":{"utc":"2020-06-18T19:00:00.000Z","local":"2020-06-18T21:00:00+02:00"},"parameter":"no2","value":27.65,"unit":"µg/m³","averagingPeriod":{"value":1,"unit":"hours"},"location":"Eindhoven-Noordbrabantlaan","city":"Eindhoven","country":"NL","coordinates":{"latitude":51.4442,"longitude":5.44483},"attribution":[{"name":"RIVM","url":"http://www.lml.rivm.nl/"}],"sourceName":"Netherlands","sourceType":"government","mobile":false}
{"date":{"utc":"2020-06-18T20:00:00.000Z","local":"2020-06-19T04:00:00+08:00"},"parameter":"o3","value":5.2,"unit":"µg/m³","averagingPeriod":{"value":1,"unit":"hours"},"location":"Tai Po","city":"New Territories","country":"HK","coordinates":{"longitude":114.16444444444446,"latitude":22.450833333333332},"attribution":[{"name":"Environmental Protection Department","url":"https://data.gov.hk/en-data/dataset/hk-epd-airteam-past24hr-pc-of-individual-air-quality-monitoring-stations"}],"sourceName":"Hong Kong","sourceType":"government","mobile":false}
{"date":{"utc":"2020-06-18T19:00:00.000Z","local":"2020-06-18T21:00:00+02:00"},"parameter":"no2","value":44.74,"unit":"µg/m³","averagingPeriod":{"value":1,"unit":"hours"},"location":"Breda-Tilburgseweg","city":"Breda","country":"NL","coordinates":{"latitude":51.5935,"longitude":4.82494},"attribution":[{"name":"RIVM","url":"http://www.lml.rivm.nl/"}],"sourceName":"Netherlands","sourceType":"government","mobile":false}
{"date":{"utc":"2020-06-18T20:00:00.000Z","local":"2020-06-19T04:00:00+08:00"},"parameter":"so2","value":1.6,"unit":"µg/m³","averagingPeriod":{"value":1,"unit":"hours"},"location":"Tai Po","city":"New Territories","country":"HK","coordinates":{"longitude":114.16444444444446,"latitude":22.450833333333332},"attribution":[{"name":"Environmental Protection Department","url":"https://data.gov.hk/en-data/dataset/hk-epd-airteam-past24hr-pc-of-individual-air-quality-monitoring-stations"}],"sourceName":"Hong Kong","sourceType":"government","mobile":false}
{"date":{"utc":"2020-06-18T19:00:00.000Z","local":"2020-06-18T21:00:00+02:00"},"parameter":"no2","value":15.34,"unit":"µg/m³","averagingPeriod":{"value":1,"unit":"hours"},"location":"Breda-Bastenakenstraat","city":"Breda","country":"NL","coordinates":{"latitude":51.6031,"longitude":4.78102},"attribution":[{"name":"RIVM","url":"http://www.lml.rivm.nl/"}],"sourceName":"Netherlands","sourceType":"government","mobile":false}
{"date":{"utc":"2020-06-18T20:00:00.000Z","local":"2020-06-19T04:00:00+08:00"},"parameter":"pm10","value":9.6,"unit":"µg/m³","averagingPeriod":{"value":1,"unit":"hours"},"location":"Tai Po","city":"New Territories","country":"HK","coordinates":{"longitude":114.16444444444446,"latitude":22.450833333333332},"attribution":[{"name":"Environmental Protection Department","url":"https://data.gov.hk/en-data/dataset/hk-epd-airteam-past24hr-pc-of-individual-air-quality-monitoring-stations"}],"sourceName":"Hong Kong","sourceType":"government","mobile":false}
{"date":{"utc":"2020-06-18T19:00:00.000Z","local":"2020-06-18T21:00:00+02:00"},"parameter":"no2","value":4.24,"unit":"µg/m³","averagingPeriod":{"value":1,"unit":"hours"},"location":"Zierikzee-Lange Slikweg","city":"Zierikzee","country":"NL","coordinates":{"latitude":51.6347,"longitude":3.91662},"attribution":[{"name":"RIVM","url":"http://www.lml.rivm.nl/"}],"sourceName":"Netherlands","sourceType":"government","mobile":false}
{"date":{"utc":"2020-06-18T20:00:00.000Z","local":"2020-06-19T04:00:00+08:00"},"parameter":"pm25","value":5.2,"unit":"µg/m³","averagingPeriod":{"value":1,"unit":"hours"},"location":"Tai Po","city":"New Territories","country":"HK","coordinates":{"longitude":114.16444444444446,"latitude":22.450833333333332},"attribution":[{"name":"Environmental Protection Department","url":"https://data.gov.hk/en-data/dataset/hk-epd-airteam-past24hr-pc-of-individual-air-quality-monitoring-stations"}],"sourceName":"Hong Kong","sourceType":"government","mobile":false}
{"date":{"utc":"2020-06-18T19:00:00.000Z","local":"2020-06-18T21:00:00+02:00"},"parameter":"no2","value":4.92,"unit":"µg/m³","averagingPeriod":{"value":1,"unit":"hours"},"location":"Philippine-Stelleweg","city":"Philippine","country":"NL","coordinates":{"latitude":51.2945,"longitude":3.74948},"attribution":[{"name":"RIVM","url":"http://www.lml.rivm.nl/"}],"sourceName":"Netherlands","sourceType":"government","mobile":false}
{"date":{"utc":"2020-06-18T20:00:00.000Z","local":"2020-06-19T04:00:00+08:00"},"parameter":"no2","value":23.8,"unit":"µg/m³","averagingPeriod":{"value":1,"unit":"hours"},"location":"Sha Tin","city":"New Territories","country":"HK","coordinates":{"longitude":114.18444444444445,"latitude":22.37638888888889},"attribution":[{"name":"Environmental Protection Department","url":"https://data.gov.hk/en-data/dataset/hk-epd-airteam-past24hr-pc-of-individual-air-quality-monitoring-stations"}],"sourceName":"Hong Kong","sourceType":"government","mobile":false}
{"date":{"utc":"2020-06-18T19:00:00.000Z","local":"2020-06-18T21:00:00+02:00"},"parameter":"no2","value":12.05,"unit":"µg/m³","averagingPeriod":{"value":1,"unit":"hours"},"location":"Den Haag-Rebecquestraat","city":"Den Haag","country":"NL","coordinates":{"latitude":52.0771,"longitude":4.28919},"attribution":[{"name":"RIVM","url":"http://www.lml.rivm.nl/"}],"sourceName":"Netherlands","sourceType":"government","mobile":false}
{"date":{"utc":"2020-06-18T20:00:00.000Z","local":"2020-06-19T04:00:00+08:00"},"parameter":"o3","value":21.2,"unit":"µg/m³","averagingPeriod":{"value":1,"unit":"hours"},"location":"Sha Tin","city":"New Territories","country":"HK","coordinates":{"longitude":114.18444444444445,"latitude":22.37638888888889},"attribution":[{"name":"Environmental Protection Department","url":"https://data.gov.hk/en-data/dataset/hk-epd-airteam-past24hr-pc-of-individual-air-quality-monitoring-stations"}],"sourceName":"Hong Kong","sourceType":"government","mobile":false}
{"date":{"utc":"2020-06-18T19:00:00.000Z","local":"2020-06-18T21:00:00+02:00"},"parameter":"no2","value":20.09,"unit":"µg/m³","averagingPeriod":{"value":1,"unit":"hours"},"location":"Rotterdam-Schiedamsevest","city":"Rotterdam","country":"NL","coordinates":{"latitude":51.9142,"longitude":4.47992},"attribution":[{"name":"RIVM","url":"http://www.lml.rivm.nl/"}],"sourceName":"Netherlands","sourceType":"government","mobile":false}
{"date":{"utc":"2020-06-18T20:00:00.000Z","local":"2020-06-19T04:00:00+08:00"},"parameter":"so2","value":7.4,"unit":"µg/m³","averagingPeriod":{"value":1,"unit":"hours"},"location":"Sha Tin","city":"New Territories","country":"HK","coordinates":{"longitude":114.18444444444445,"latitude":22.37638888888889},"attribution":[{"name":"Environmental Protection Department","url":"https://data.gov.hk/en-data/dataset/hk-epd-airteam-past24hr-pc-of-individual-air-quality-monitoring-stations"}],"sourceName":"Hong Kong","sourceType":"government","mobile":false}
{"date":{"utc":"2020-06-18T19:00:00.000Z","local":"2020-06-18T21:00:00+02:00"},"parameter":"no2","value":45.17,"unit":"µg/m³","averagingPeriod":{"value":1,"unit":"hours"},"location":"Westmaas-Groeneweg","city":"Westmaas","country":"NL","coordinates":{"latitude":51.7866,"longitude":4.45053},"attribution":[{"name":"RIVM","url":"http://www.lml.rivm.nl/"}],"sourceName":"Netherlands","sourceType":"government","mobile":false}
{"date":{"utc":"2020-06-18T20:00:00.000Z","local":"2020-06-19T04:00:00+08:00"},"parameter":"pm10","value":9.8,"unit":"µg/m³","averagingPeriod":{"value":1,"unit":"hours"},"location":"Sha Tin","city":"New Territories","country":"HK","coordinates":{"longitude":114.18444444444445,"latitude":22.37638888888889},"attribution":[{"name":"Environmental Protection Department","url":"https://data.gov.hk/en-data/dataset/hk-epd-airteam-past24hr-pc-of-individual-air-quality-monitoring-stations"}],"sourceName":"Hong Kong","sourceType":"government","mobile":false}
{"date":{"utc":"2020-06-18T19:00:00.000Z","local":"2020-06-18T21:00:00+02:00"},"parameter":"no2","value":20.53,"unit":"µg/m³","averagingPeriod":{"value":1,"unit":"hours"},"location":"Dordrecht-Bamendaweg","city":"Dordrecht","country":"NL","coordinates":{"latitude":51.8007,"longitude":4.70824},"attribution":[{"name":"RIVM","url":"http://www.lml.rivm.nl/"}],"sourceName":"Netherlands","sourceType":"government","mobile":false}
{"date":{"utc":"2020-06-18T20:00:00.000Z","local":"2020-06-19T04:00:00+08:00"},"parameter":"pm25","value":5.9,"unit":"µg/m³","averagingPeriod":{"value":1,"unit":"hours"},"location":"Sha Tin","city":"New Territories","country":"HK","coordinates":{"longitude":114.18444444444445,"latitude":22.37638888888889},"attribution":[{"name":"Environmental Protection Department","url":"https://data.gov.hk/en-data/dataset/hk-epd-airteam-past24hr-pc-of-individual-air-quality-monitoring-stations"}],"sourceName":"Hong Kong","sourceType":"government","mobile":false}
{"date":{"utc":"2020-06-18T19:00:00.000Z","local":"2020-06-18T21:00:00+02:00"},"parameter":"no2","value":5.46,"unit":"µg/m³","averagingPeriod":{"value":1,"unit":"hours"},"location":"De Zilk-Vogelaarsdreef","city":"De Zilk","country":"NL","coordinates":{"latitude":52.2966,"longitude":4.51082},"attribution":[{"name":"RIVM","url":"http://www.lml.rivm.nl/"}],"sourceName":"Netherlands","sourceType":"government","mobile":false}
{"date":{"utc":"2020-06-18T20:00:00.000Z","local":"2020-06-19T04:00:00+08:00"},"parameter":"no2","value":6.3,"unit":"µg/m³","averagingPeriod":{"value":1,"unit":"hours"},"location":"Tap Mun","city":"Tap Mun Police Post","country":"HK","coordinates":{"longitude":114.36083333333333,"latitude":22.47138888888889},"attribution":[{"name":"Environmental Protection Department","url":"https://data.gov.hk/en-data/dataset/hk-epd-airteam-past24hr-pc-of-individual-air-quality-monitoring-stations"}],"sourceName":"Hong Kong","sourceType":"government","mobile":false}
{"date":{"utc":"2020-06-18T19:00:00.000Z","local":"2020-06-18T21:00:00+02:00"},"parameter":"no2","value":30.09,"unit":"µg/m³","averagingPeriod":{"value":1,"unit":"hours"},"location":"Den Haag-Veerkade","city":"Den Haag","country":"NL","coordinates":{"latitude":52.0751,"longitude":4.31587},"attribution":[{"name":"RIVM","url":"http://www.lml.rivm.nl/"}],"sourceName":"Netherlands","sourceType":"government","mobile":false}
{"date":{"utc":"2020-06-18T20:00:00.000Z","local":"2020-06-19T04:00:00+08:00"},"parameter":"o3","value":14.7,"unit":"µg/m³","averagingPeriod":{"value":1,"unit":"hours"},"location":"Tap Mun","city":"Tap Mun Police Post","country":"HK","coordinates":{"longitude":114.36083333333333,"latitude":22.47138888888889},"attribution":[{"name":"Environmental Protection Department","url":"https://data.gov.hk/en-data/dataset/hk-epd-airteam-past24hr-pc-of-individual-air-quality-monitoring-stations"}],"sourceName":"Hong Kong","sourceType":"government","mobile":false}
{"date":{"utc":"2020-06-18T19:00:00.000Z","local":"2020-06-18T21:00:00+02:00"},"parameter":"no2","value":26.38,"unit":"µg/m³","averagingPeriod":{"value":1,"unit":"hours"},"location":"Den Haag-Bleriotlaan","city":"Den Haag","country":"NL","coordinates":{"latitude":52.039,"longitude":4.35938},"attribution":[{"name":"RIVM","url":"http://www.lml.rivm.nl/"}],"sourceName":"Netherlands","sourceType":"government","mobile":false}
{"date":{"utc":"2020-06-18T20:00:00.000Z","local":"2020-06-19T04:00:00+08:00"},"parameter":"so2","value":1.7,"unit":"µg/m³","averagingPeriod":{"value":1,"unit":"hours"},"location":"Tap Mun","city":"Tap Mun Police Post","country":"HK","coordinates":{"longitude":114.36083333333333,"latitude":22.47138888888889},"attribution":[{"name":"Environmental Protection Department","url":"https://data.gov.hk/en-data/dataset/hk-epd-airteam-past24hr-pc-of-individual-air-quality-monitoring-stations"}],"sourceName":"Hong Kong","sourceType":"government","mobile":false}
{"date":{"utc":"2020-06-18T19:00:00.000Z","local":"2020-06-18T21:00:00+02:00"},"parameter":"no2","value":5.69,"unit":"µg/m³","averagingPeriod":{"value":1,"unit":"hours"},"location":"Wieringerwerf-Medemblikkerweg","city":"Wieringerwerf","country":"NL","coordinates":{"latitude":52.8037,"longitude":5.05051},"attribution":[{"name":"RIVM","url":"http://www.lml.rivm.nl/"}],"sourceName":"Netherlands","sourceType":"government","mobile":false}
{"date":{"utc":"2020-06-18T20:00:00.000Z","local":"2020-06-19T04:00:00+08:00"},"parameter":"co","value":310.2,"unit":"µg/m³","averagingPeriod":{"value":1,"unit":"hours"},"location":"Tap Mun","city":"Tap Mun Police Post","country":"HK","coordinates":{"longitude":114.36083333333333,"latitude":22.47138888888889},"attribution":[{"name":"Environmental Protection Department","url":"https://data.gov.hk/en-data/dataset/hk-epd-airteam-past24hr-pc-of-individual-air-quality-monitoring-stations"}],"sourceName":"Hong Kong","sourceType":"government","mobile":false}
{"date":{"utc":"2020-06-18T19:00:00.000Z","local":"2020-06-18T21:00:00+02:00"},"parameter":"no2","value":17.33,"unit":"µg/m³","averagingPeriod":{"value":1,"unit":"hours"},"location":"Haarlem-Schipholweg","city":"Haarlem","country":"NL","coordinates":{"latitude":52.3705,"longitude":4.64232},"attribution":[{"name":"RIVM","url":"http://www.lml.rivm.nl/"}],"sourceName":"Netherlands","sourceType":"government","mobile":false}
{"date":{"utc":"2020-06-18T20:00:00.000Z","local":"2020-06-19T04:00:00+08:00"},"parameter":"pm10","value":8.8,"unit":"µg/m³","averagingPeriod":{"value":1,"unit":"hours"},"location":"Tap Mun","city":"Tap Mun Police Post","country":"HK","coordinates":{"longitude":114.36083333333333,"latitude":22.47138888888889},"attribution":[{"name":"Environmental Protection Department","url":"https://data.gov.hk/en-data/dataset/hk-epd-airteam-past24hr-pc-of-individual-air-quality-monitoring-stations"}],"sourceName":"Hong Kong","sourceType":"government","mobile":false}
{"date":{"utc":"2020-06-18T19:00:00.000Z","local":"2020-06-18T21:00:00+02:00"},"parameter":"no2","value":5.45,"unit":"µg/m³","averagingPeriod":{"value":1,"unit":"hours"},"location":"Biddinghuizen-Kuilweg","city":"Biddinghuizen","country":"NL","coordinates":{"latitude":52.4232,"longitude":5.59338},"attribution":[{"name":"RIVM","url":"http://www.lml.rivm.nl/"}],"sourceName":"Netherlands","sourceType":"government","mobile":false}
{"date":{"utc":"2020-06-18T20:00:00.000Z","local":"2020-06-19T04:00:00+08:00"},"parameter":"pm25","value":4.3,"unit":"µg/m³","averagingPeriod":{"value":1,"unit":"hours"},"location":"Tap Mun","city":"Tap Mun Police Post","country":"HK","coordinates":{"longitude":114.36083333333333,"latitude":22.47138888888889},"attribution":[{"name":"Environmental Protection Department","url":"https://data.gov.hk/en-data/dataset/hk-epd-airteam-past24hr-pc-of-individual-air-quality-monitoring-stations"}],"sourceName":"Hong Kong","sourceType":"government","mobile":false}
{"date":{"utc":"2020-06-18T19:00:00.000Z","local":"2020-06-18T21:00:00+02:00"},"parameter":"no2","value":5.6,"unit":"µg/m³","averagingPeriod":{"value":1,"unit":"hours"},"location":"Zegveld-Oude Meije","city":"Zegveld","country":"NL","coordinates":{"latitude":52.138,"longitude":4.83819},"attribution":[{"name":"RIVM","url":"http://www.lml.rivm.nl/"}],"sourceName":"Netherlands","sourceType":"government","mobile":false}
{"date":{"utc":"2020-06-18T20:00:00.000Z","local":"2020-06-19T04:00:00+08:00"},"parameter":"no2","value":15.4,"unit":"µg/m³","averagingPeriod":{"value":1,"unit":"hours"},"location":"Causeway Bay","city":"Causeway Bay","country":"HK","coordinates":{"longitude":114.185,"latitude":22.279999999999998},"attribution":[{"name":"Environmental Protection Department","url":"https://data.gov.hk/en-data/dataset/hk-epd-airteam-past24hr-pc-of-individual-air-quality-monitoring-stations"}],"sourceName":"Hong Kong","sourceType":"government","mobile":false}
{"date":{"utc":"2020-06-18T19:00:00.000Z","local":"2020-06-18T21:00:00+02:00"},"parameter":"no2","value":19.64,"unit":"µg/m³","averagingPeriod":{"value":1,"unit":"hours"},"location":"Utrecht-de Jongweg","city":"Utrecht","country":"NL","coordinates":{"latitude":52.105,"longitude":5.12446},"attribution":[{"name":"RIVM","url":"http://www.lml.rivm.nl/"}],"sourceName":"Netherlands","sourceType":"government","mobile":false}
{"date":{"utc":"2020-06-18T20:00:00.000Z","local":"2020-06-19T04:00:00+08:00"},"parameter":"o3","value":31.2,"unit":"µg/m³","averagingPeriod":{"value":1,"unit":"hours"},"location":"Causeway Bay","city":"Causeway Bay","country":"HK","coordinates":{"longitude":114.185,"latitude":22.279999999999998},"attribution":[{"name":"Environmental Protection Department","url":"https://data.gov.hk/en-data/dataset/hk-epd-airteam-past24hr-pc-of-individual-air-quality-monitoring-stations"}],"sourceName":"Hong Kong","sourceType":"government","mobile":false}
{"date":{"utc":"2020-06-18T20:00:00.000Z","local":"2020-06-19T04:00:00+08:00"},"parameter":"so2","value":4.3,"unit":"µg/m³","averagingPeriod":{"value":1,"unit":"hours"},"location":"Causeway Bay","city":"Causeway Bay","country":"HK","coordinates":{"longitude":114.185,"latitude":22.279999999999998},"attribution":[{"name":"Environmental Protection Department","url":"https://data.gov.hk/en-data/dataset/hk-epd-airteam-past24hr-pc-of-individual-air-quality-monitoring-stations"}],"sourceName":"Hong Kong","sourceType":"government","mobile":false}
{"date":{"utc":"2020-06-18T19:00:00.000Z","local":"2020-06-18T21:00:00+02:00"},"parameter":"no2","value":24.72,"unit":"µg/m³","averagingPeriod":{"value":1,"unit":"hours"},"location":"Utrecht-Erzeijstraat","city":"Utrecht","country":"NL","coordinates":{"latitude":52.0677,"longitude":5.12051},"attribution":[{"name":"RIVM","url":"http://www.lml.rivm.nl/"}],"sourceName":"Netherlands","sourceType":"government","mobile":false}
{"date":{"utc":"2020-06-18T19:00:00.000Z","local":"2020-06-18T21:00:00+02:00"},"parameter":"no2","value":37.78,"unit":"µg/m³","averagingPeriod":{"value":1,"unit":"hours"},"location":"Breukelen-Snelweg","city":"Breukelen","country":"NL","coordinates":{"latitude":52.2015,"longitude":4.98744},"attribution":[{"name":"RIVM","url":"http://www.lml.rivm.nl/"}],"sourceName":"Netherlands","sourceType":"government","mobile":false}
{"date":{"utc":"2020-06-18T20:00:00.000Z","local":"2020-06-19T04:00:00+08:00"},"parameter":"co","value":361.5,"unit":"µg/m³","averagingPeriod":{"value":1,"unit":"hours"},"location":"Causeway Bay","city":"Causeway Bay","country":"HK","coordinates":{"longitude":114.185,"latitude":22.279999999999998},"attribution":[{"name":"Environmental Protection Department","url":"https://data.gov.hk/en-data/dataset/hk-epd-airteam-past24hr-pc-of-individual-air-quality-monitoring-stations"}],"sourceName":"Hong Kong","sourceType":"government","mobile":false}
{"date":{"utc":"2020-06-18T19:00:00.000Z","local":"2020-06-18T21:00:00+02:00"},"parameter":"no2","value":13.21,"unit":"µg/m³","averagingPeriod":{"value":1,"unit":"hours"},"location":"Utrecht-Griftpark","city":"Utrecht","country":"NL","coordinates":{"latitude":52.1013,"longitude":5.12818},"attribution":[{"name":"RIVM","url":"http://www.lml.rivm.nl/"}],"sourceName":"Netherlands","sourceType":"government","mobile":false}
{"date":{"utc":"2020-06-18T20:00:00.000Z","local":"2020-06-19T04:00:00+08:00"},"parameter":"pm10","value":6.6,"unit":"µg/m³","averagingPeriod":{"value":1,"unit":"hours"},"location":"Causeway Bay","city":"Causeway Bay","country":"HK","coordinates":{"longitude":114.185,"latitude":22.279999999999998},"attribution":[{"name":"Environmental Protection Department","url":"https://data.gov.hk/en-data/dataset/hk-epd-airteam-past24hr-pc-of-individual-air-quality-monitoring-stations"}],"sourceName":"Hong Kong","sourceType":"government","mobile":false}
{"date":{"utc":"2020-06-18T19:00:00.000Z","local":"2020-06-18T21:00:00+02:00"},"parameter":"no2","value":7.97,"unit":"µg/m³","averagingPeriod":{"value":1,"unit":"hours"},"location":"Cabauw-Wielsekade","city":"Cabauw","country":"NL","coordinates":{"latitude":51.9745,"longitude":4.9233},"attribution":[{"name":"RIVM","url":"http://www.lml.rivm.nl/"}],"sourceName":"Netherlands","sourceType":"government","mobile":false}
{"date":{"utc":"2020-06-18T20:00:00.000Z","local":"2020-06-19T04:00:00+08:00"},"parameter":"pm25","value":4.4,"unit":"µg/m³","averagingPeriod":{"value":1,"unit":"hours"},"location":"Causeway Bay","city":"Causeway Bay","country":"HK","coordinates":{"longitude":114.185,"latitude":22.279999999999998},"attribution":[{"name":"Environmental Protection Department","url":"https://data.gov.hk/en-data/dataset/hk-epd-airteam-past24hr-pc-of-individual-air-quality-monitoring-stations"}],"sourceName":"Hong Kong","sourceType":"government","mobile":false}
{"date":{"utc":"2020-06-18T19:00:00.000Z","local":"2020-06-18T21:00:00+02:00"},"parameter":"no2","value":8.98,"unit":"µg/m³","averagingPeriod":{"value":1,"unit":"hours"},"location":"Eibergen-Lintveldseweg","city":"Eibergen","country":"NL","coordinates":{"latitude":52.0918,"longitude":6.60537},"attribution":[{"name":"RIVM","url":"http://www.lml.rivm.nl/"}],"sourceName":"Netherlands","sourceType":"government","mobile":false}
{"date":{"utc":"2020-06-18T20:00:00.000Z","local":"2020-06-19T04:00:00+08:00"},"parameter":"no2","value":35.8,"unit":"µg/m³","averagingPeriod":{"value":1,"unit":"hours"},"location":"Central","city":"Central","country":"HK","coordinates":{"longitude":114.15805555555556,"latitude":22.281944444444445},"attribution":[{"name":"Environmental Protection Department","url":"https://data.gov.hk/en-data/dataset/hk-epd-airteam-past24hr-pc-of-individual-air-quality-monitoring-stations"}],"sourceName":"Hong Kong","sourceType":"government","mobile":false}
{"date":{"utc":"2020-06-18T19:00:00.000Z","local":"2020-06-18T21:00:00+02:00"},"parameter":"no2","value":17.68,"unit":"µg/m³","averagingPeriod":{"value":1,"unit":"hours"},"location":"Wekerom-Riemterdijk","city":"Wekerom","country":"NL","coordinates":{"latitude":52.1116,"longitude":5.70842},"attribution":[{"name":"RIVM","url":"http://www.lml.rivm.nl/"}],"sourceName":"Netherlands","sourceType":"government","mobile":false}
{"date":{"utc":"2020-06-18T20:00:00.000Z","local":"2020-06-19T04:00:00+08:00"},"parameter":"o3","value":29.6,"unit":"µg/m³","averagingPeriod":{"value":1,"unit":"hours"},"location":"Central","city":"Central","country":"HK","coordinates":{"longitude":114.15805555555556,"latitude":22.281944444444445},"attribution":[{"name":"Environmental Protection Department","url":"https://data.gov.hk/en-data/dataset/hk-epd-airteam-past24hr-pc-of-individual-air-quality-monitoring-stations"}],"sourceName":"Hong Kong","sourceType":"government","mobile":false}
{"date":{"utc":"2020-06-18T19:00:00.000Z","local":"2020-06-18T21:00:00+02:00"},"parameter":"no2","value":25.38,"unit":"µg/m³","averagingPeriod":{"value":1,"unit":"hours"},"location":"Nijmegen-Graafseweg","city":"Nijmegen","country":"NL","coordinates":{"latitude":51.8414,"longitude":5.85778},"attribution":[{"name":"RIVM","url":"http://www.lml.rivm.nl/"}],"sourceName":"Netherlands","sourceType":"government","mobile":false}
{"date":{"utc":"2020-06-18T20:00:00.000Z","local":"2020-06-19T04:00:00+08:00"},"parameter":"so2","value":2.9,"unit":"µg/m³","averagingPeriod":{"value":1,"unit":"hours"},"location":"Central","city":"Central","country":"HK","coordinates":{"longitude":114.15805555555556,"latitude":22.281944444444445},"attribution":[{"name":"Environmental Protection Department","url":"https://data.gov.hk/en-data/dataset/hk-epd-airteam-past24hr-pc-of-individual-air-quality-monitoring-stations"}],"sourceName":"Hong Kong","sourceType":"government","mobile":false}
{"date":{"utc":"2020-06-18T19:00:00.000Z","local":"2020-06-18T21:00:00+02:00"},"parameter":"no2","value":13.6,"unit":"µg/m³","averagingPeriod":{"value":1,"unit":"hours"},"location":"Nijmegen-Ruyterstraat","city":"Nijmegen","country":"NL","coordinates":{"latitude":51.8382,"longitude":5.85694},"attribution":[{"name":"RIVM","url":"http://www.lml.rivm.nl/"}],"sourceName":"Netherlands","sourceType":"government","mobile":false}
{"date":{"utc":"2020-06-18T20:00:00.000Z","local":"2020-06-19T04:00:00+08:00"},"parameter":"co","value":916.9,"unit":"µg/m³","averagingPeriod":{"value":1,"unit":"hours"},"location":"Central","city":"Central","country":"HK","coordinates":{"longitude":114.15805555555556,"latitude":22.281944444444445},"attribution":[{"name":"Environmental Protection Department","url":"https://data.gov.hk/en-data/dataset/hk-epd-airteam-past24hr-pc-of-individual-air-quality-monitoring-stations"}],"sourceName":"Hong Kong","sourceType":"government","mobile":false}
{"date":{"utc":"2020-06-18T19:00:00.000Z","local":"2020-06-18T21:00:00+02:00"},"parameter":"no2","value":7.15,"unit":"µg/m³","averagingPeriod":{"value":1,"unit":"hours"},"location":"Hellendoorn-Luttenbergerweg","city":"Hellendoorn","country":"NL","coordinates":{"latitude":52.3883,"longitude":6.40293},"attribution":[{"name":"RIVM","url":"http://www.lml.rivm.nl/"}],"sourceName":"Netherlands","sourceType":"government","mobile":false}
{"date":{"utc":"2020-06-18T20:00:00.000Z","local":"2020-06-19T04:00:00+08:00"},"parameter":"pm10","value":5.6,"unit":"µg/m³","averagingPeriod":{"value":1,"unit":"hours"},"location":"Central","city":"Central","country":"HK","coordinates":{"longitude":114.15805555555556,"latitude":22.281944444444445},"attribution":[{"name":"Environmental Protection Department","url":"https://data.gov.hk/en-data/dataset/hk-epd-airteam-past24hr-pc-of-individual-air-quality-monitoring-stations"}],"sourceName":"Hong Kong","sourceType":"government","mobile":false}
{"date":{"utc":"2020-06-18T19:00:00.000Z","local":"2020-06-18T21:00:00+02:00"},"parameter":"no2","value":8.99,"unit":"µg/m³","averagingPeriod":{"value":1,"unit":"hours"},"location":"Barsbeek-De Veenen","city":"Barsbeek","country":"NL","coordinates":{"latitude":52.6541,"longitude":6.01757},"attribution":[{"name":"RIVM","url":"http://www.lml.rivm.nl/"}],"sourceName":"Netherlands","sourceType":"government","mobile":false}
{"date":{"utc":"2020-06-18T20:00:00.000Z","local":"2020-06-19T04:00:00+08:00"},"parameter":"pm25","value":3,"unit":"µg/m³","averagingPeriod":{"value":1,"unit":"hours"},"location":"Central","city":"Central","country":"HK","coordinates":{"longitude":114.15805555555556,"latitude":22.281944444444445},"attribution":[{"name":"Environmental Protection Department","url":"https://data.gov.hk/en-data/dataset/hk-epd-airteam-past24hr-pc-of-individual-air-quality-monitoring-stations"}],"sourceName":"Hong Kong","sourceType":"government","mobile":false}
{"date":{"utc":"2020-06-18T19:00:00.000Z","local":"2020-06-18T21:00:00+02:00"},"parameter":"no2","value":7.06,"unit":"µg/m³","averagingPeriod":{"value":1,"unit":"hours"},"location":"Balk-Trophornsterweg","city":"Balk","country":"NL","coordinates":{"latitude":52.9169,"longitude":5.57349},"attribution":[{"name":"RIVM","url":"http://www.lml.rivm.nl/"}],"sourceName":"Netherlands","sourceType":"government","mobile":false}
{"date":{"utc":"2020-06-18T20:00:00.000Z","local":"2020-06-19T04:00:00+08:00"},"parameter":"no2","value":32.5,"unit":"µg/m³","averagingPeriod":{"value":1,"unit":"hours"},"location":"Mong Kok","city":"Kowloon","country":"HK","coordinates":{"longitude":114.16833333333334,"latitude":22.322499999999998},"attribution":[{"name":"Environmental Protection Department","url":"https://data.gov.hk/en-data/dataset/hk-epd-airteam-past24hr-pc-of-individual-air-quality-monitoring-stations"}],"sourceName":"Hong Kong","sourceType":"government","mobile":false}
{"date":{"utc":"2020-06-18T19:00:00.000Z","local":"2020-06-18T21:00:00+02:00"},"parameter":"no2","value":8.79,"unit":"µg/m³","averagingPeriod":{"value":1,"unit":"hours"},"location":"Valthermond-Noorderdiep","city":"Valthermond","country":"NL","coordinates":{"latitude":52.8757,"longitude":6.93243},"attribution":[{"name":"RIVM","url":"http://www.lml.rivm.nl/"}],"sourceName":"Netherlands","sourceType":"government","mobile":false}
{"date":{"utc":"2020-06-18T20:00:00.000Z","local":"2020-06-19T04:00:00+08:00"},"parameter":"o3","value":14.6,"unit":"µg/m³","averagingPeriod":{"value":1,"unit":"hours"},"location":"Mong Kok","city":"Kowloon","country":"HK","coordinates":{"longitude":114.16833333333334,"latitude":22.322499999999998},"attribution":[{"name":"Environmental Protection Department","url":"https://data.gov.hk/en-data/dataset/hk-epd-airteam-past24hr-pc-of-individual-air-quality-monitoring-stations"}],"sourceName":"Hong Kong","sourceType":"government","mobile":false}
{"date":{"utc":"2020-06-18T20:00:00.000Z","local":"2020-06-18T16:00:00-04:00"},"parameter":"pm10","value":31,"unit":"µg/m³","location":"Viña del Mar","city":"Viña del Mar","country":"CL","coordinates":{"latitude":-33.020419817382,"longitude":-71.550092842922},"attribution":[{"name":"SINCA","url":"http://sinca.mma.gob.cl/"},{"name":"Ministerio del Medio Ambiente"}],"sourceName":"Chile - SINCA","sourceType":"government","mobile":false}
{"date":{"utc":"2020-06-18T19:00:00.000Z","local":"2020-06-18T21:00:00+02:00"},"parameter":"no2","value":5.88,"unit":"µg/m³","averagingPeriod":{"value":1,"unit":"hours"},"location":"Kollumerwaard-Hooge Zuidwal","city":"Kollumerwaard","country":"NL","coordinates":{"latitude":53.3304,"longitude":6.27681},"attribution":[{"name":"RIVM","url":"http://www.lml.rivm.nl/"}],"sourceName":"Netherlands","sourceType":"government","mobile":false}
{"date":{"utc":"2020-06-18T20:00:00.000Z","local":"2020-06-19T04:00:00+08:00"},"parameter":"so2","value":2.2,"unit":"µg/m³","averagingPeriod":{"value":1,"unit":"hours"},"location":"Mong Kok","city":"Kowloon","country":"HK","coordinates":{"longitude":114.16833333333334,"latitude":22.322499999999998},"attribution":[{"name":"Environmental Protection Department","url":"https://data.gov.hk/en-data/dataset/hk-epd-airteam-past24hr-pc-of-individual-air-quality-monitoring-stations"}],"sourceName":"Hong Kong","sourceType":"government","mobile":false}
{"date":{"utc":"2020-06-18T19:00:00.000Z","local":"2020-06-18T21:00:00+02:00"},"parameter":"no2","value":21.05,"unit":"µg/m³","averagingPeriod":{"value":1,"unit":"hours"},"location":"Groningen-Europaweg","city":"Groningen","country":"NL","coordinates":{"latitude":53.2178,"longitude":6.5789},"attribution":[{"name":"RIVM","url":"http://www.lml.rivm.nl/"}],"sourceName":"Netherlands","sourceType":"government","mobile":false}
{"date":{"utc":"2020-06-18T20:00:00.000Z","local":"2020-06-19T04:00:00+08:00"},"parameter":"co","value":417.3,"unit":"µg/m³","averagingPeriod":{"value":1,"unit":"hours"},"location":"Mong Kok","city":"Kowloon","country":"HK","coordinates":{"longitude":114.16833333333334,"latitude":22.322499999999998},"attribution":[{"name":"Environmental Protection Department","url":"https://data.gov.hk/en-data/dataset/hk-epd-airteam-past24hr-pc-of-individual-air-quality-monitoring-stations"}],"sourceName":"Hong Kong","sourceType":"government","mobile":false}
{"date":{"utc":"2020-06-18T19:00:00.000Z","local":"2020-06-18T21:00:00+02:00"},"parameter":"no2","value":3.95,"unit":"µg/m³","averagingPeriod":{"value":1,"unit":"hours"},"location":"Groningen-Nijensteinheerd","city":"Groningen","country":"NL","coordinates":{"latitude":53.2465,"longitude":6.60894},"attribution":[{"name":"RIVM","url":"http://www.lml.rivm.nl/"}],"sourceName":"Netherlands","sourceType":"government","mobile":false}
{"date":{"utc":"2020-06-18T20:00:00.000Z","local":"2020-06-19T04:00:00+08:00"},"parameter":"pm10","value":4,"unit":"µg/m³","averagingPeriod":{"value":1,"unit":"hours"},"location":"Mong Kok","city":"Kowloon","country":"HK","coordinates":{"longitude":114.16833333333334,"latitude":22.322499999999998},"attribution":[{"name":"Environmental Protection Department","url":"https://data.gov.hk/en-data/dataset/hk-epd-airteam-past24hr-pc-of-individual-air-quality-monitoring-stations"}],"sourceName":"Hong Kong","sourceType":"government","mobile":false}
{"date":{"utc":"2020-06-18T19:00:00.000Z","local":"2020-06-18T21:00:00+02:00"},"parameter":"o3","value":34.2,"unit":"µg/m³","averagingPeriod":{"value":1,"unit":"hours"},"location":"Hoogvliet-Leemkuil","city":"Hoogvliet","country":"NL","coordinates":{"latitude":51.8674,"longitude":4.35524},"attribution":[{"name":"RIVM","url":"http://www.lml.rivm.nl/"},{"name":"DCMR"}],"sourceName":"Netherlands","sourceType":"government","mobile":false}
{"date":{"utc":"2020-06-18T20:00:00.000Z","local":"2020-06-19T04:00:00+08:00"},"parameter":"pm25","value":2.3,"unit":"µg/m³","averagingPeriod":{"value":1,"unit":"hours"},"location":"Mong Kok","city":"Kowloon","country":"HK","coordinates":{"longitude":114.16833333333334,"latitude":22.322499999999998},"attribution":[{"name":"Environmental Protection Department","url":"https://data.gov.hk/en-data/dataset/hk-epd-airteam-past24hr-pc-of-individual-air-quality-monitoring-stations"}],"sourceName":"Hong Kong","sourceType":"government","mobile":false}
{"date":{"utc":"2020-06-18T19:00:00.000Z","local":"2020-06-18T21:00:00+02:00"},"parameter":"o3","value":57,"unit":"µg/m³","averagingPeriod":{"value":1,"unit":"hours"},"location":"Ridderkerk-Hogeweg","city":"Ridderkerk","country":"NL","coordinates":{"latitude":51.8694,"longitude":4.58006},"attribution":[{"name":"RIVM","url":"http://www.lml.rivm.nl/"},{"name":"DCMR"}],"sourceName":"Netherlands","sourceType":"government","mobile":false}
{"date":{"utc":"2020-06-18T19:00:00.000Z","local":"2020-06-18T21:00:00+02:00"},"parameter":"o3","value":49.7,"unit":"µg/m³","averagingPeriod":{"value":1,"unit":"hours"},"location":"Rotterdam Noord -Statenweg","city":"Rotterdam Noord ","country":"NL","coordinates":{"latitude":51.9271,"longitude":4.46134},"attribution":[{"name":"RIVM","url":"http://www.lml.rivm.nl/"},{"name":"DCMR"}],"sourceName":"Netherlands","sourceType":"government","mobile":false}
{"date":{"utc":"2020-06-18T19:00:00.000Z","local":"2020-06-18T21:00:00+02:00"},"parameter":"o3","value":58.7,"unit":"µg/m³","averagingPeriod":{"value":1,"unit":"hours"},"location":"Schiedam-Alphons Arienstraat","city":"Schiedam","country":"NL","coordinates":{"latitude":51.9214,"longitude":4.40139},"attribution":[{"name":"RIVM","url":"http://www.lml.rivm.nl/"},{"name":"DCMR"}],"sourceName":"Netherlands","sourceType":"government","mobile":false}
{"date":{"utc":"2020-06-18T19:00:00.000Z","local":"2020-06-18T21:00:00+02:00"},"parameter":"o3","value":-999,"unit":"µg/m³","averagingPeriod":{"value":1,"unit":"hours"},"location":"Maassluis-Kwartellaan","city":"Maassluis","country":"NL","coordinates":{"latitude":51.932,"longitude":4.22802},"attribution":[{"name":"RIVM","url":"http://www.lml.rivm.nl/"},{"name":"DCMR"}],"sourceName":"Netherlands","sourceType":"government","mobile":false}
{"date":{"utc":"2020-06-18T19:00:00.000Z","local":"2020-06-18T21:00:00+02:00"},"parameter":"o3","value":89.3,"unit":"µg/m³","averagingPeriod":{"value":1,"unit":"hours"},"location":"Hoek v. Holland-Berghaven","city":"Hoek v. Holland","country":"NL","coordinates":{"latitude":51.9778,"longitude":4.12194},"attribution":[{"name":"RIVM","url":"http://www.lml.rivm.nl/"},{"name":"DCMR"}],"sourceName":"Netherlands","sourceType":"government","mobile":false}
{"date":{"utc":"2020-06-18T19:00:00.000Z","local":"2020-06-18T21:00:00+02:00"},"parameter":"o3","value":69.6,"unit":"µg/m³","averagingPeriod":{"value":1,"unit":"hours"},"location":"Amsterdam-Nieuwendammerdijk","city":"Amsterdam","country":"NL","coordinates":{"latitude":52.3893,"longitude":4.94382},"attribution":[{"name":"RIVM","url":"http://www.lml.rivm.nl/"},{"name":"GGD A'dam"}],"sourceName":"Netherlands","sourceType":"government","mobile":false}
{"date":{"utc":"2020-06-18T19:00:00.000Z","local":"2020-06-18T21:00:00+02:00"},"parameter":"o3","value":65.3,"unit":"µg/m³","averagingPeriod":{"value":1,"unit":"hours"},"location":"Amsterdam-Van Diemenstraat","city":"Amsterdam","country":"NL","coordinates":{"latitude":52.39,"longitude":4.88781},"attribution":[{"name":"RIVM","url":"http://www.lml.rivm.nl/"},{"name":"GGD A'dam"}],"sourceName":"Netherlands","sourceType":"government","mobile":false}
{"date":{"utc":"2020-06-18T19:00:00.000Z","local":"2020-06-18T21:00:00+02:00"},"parameter":"o3","value":75.7,"unit":"µg/m³","averagingPeriod":{"value":1,"unit":"hours"},"location":"Amsterdam-Vondelpark","city":"Amsterdam","country":"NL","coordinates":{"latitude":52.3597,"longitude":4.86621},"attribution":[{"name":"RIVM","url":"http://www.lml.rivm.nl/"},{"name":"GGD A'dam"}],"sourceName":"Netherlands","sourceType":"government","mobile":false}
{"date":{"utc":"2020-06-18T19:00:00.000Z","local":"2020-06-18T21:00:00+02:00"},"parameter":"o3","value":-999,"unit":"µg/m³","averagingPeriod":{"value":1,"unit":"hours"},"location":"Zaandam-Wagenschotpad","city":"Zaandam","country":"NL","coordinates":{"latitude":52.448,"longitude":4.81671},"attribution":[{"name":"RIVM","url":"http://www.lml.rivm.nl/"},{"name":"GGD A'dam"}],"sourceName":"Netherlands","sourceType":"government","mobile":false}
{"date":{"utc":"2020-06-18T19:00:00.000Z","local":"2020-06-18T21:00:00+02:00"},"parameter":"o3","value":51,"unit":"µg/m³","averagingPeriod":{"value":1,"unit":"hours"},"location":"Maastricht-A2 Nassaulaan","city":"Maastricht","country":"NL","coordinates":{"latitude":50.8459,"longitude":5.71475},"attribution":[{"name":"RIVM","url":"http://www.lml.rivm.nl/"},{"name":"Prov. Limburg"}],"sourceName":"Netherlands","sourceType":"government","mobile":false}
{"date":{"utc":"2020-06-18T19:00:00.000Z","local":"2020-06-18T21:00:00+02:00"},"parameter":"o3","value":54,"unit":"µg/m³","averagingPeriod":{"value":1,"unit":"hours"},"location":"Maastricht-Hoge Fronten","city":"Maastricht","country":"NL","coordinates":{"latitude":50.8521,"longitude":5.6758},"attribution":[{"name":"RIVM","url":"http://www.lml.rivm.nl/"},{"name":"Prov. Limburg"}],"sourceName":"Netherlands","sourceType":"government","mobile":false}
{"date":{"utc":"2020-06-18T19:00:00.000Z","local":"2020-06-18T21:00:00+02:00"},"parameter":"o3","value":-999,"unit":"µg/m³","averagingPeriod":{"value":1,"unit":"hours"},"location":"Hoofddorp-Hoofdweg","city":"Hoofddorp","country":"NL","coordinates":{"latitude":52.3275,"longitude":4.71501},"attribution":[{"name":"RIVM","url":"http://www.lml.rivm.nl/"},{"name":"Prov. N-Holland"}],"sourceName":"Netherlands","sourceType":"government","mobile":false}
{"date":{"utc":"2020-06-18T19:00:00.000Z","local":"2020-06-18T21:00:00+02:00"},"parameter":"o3","value":45.81,"unit":"µg/m³","averagingPeriod":{"value":1,"unit":"hours"},"location":"Posterholt-Vlodropperweg","city":"Posterholt","country":"NL","coordinates":{"latitude":51.1192,"longitude":6.0424},"attribution":[{"name":"RIVM","url":"http://www.lml.rivm.nl/"}],"sourceName":"Netherlands","sourceType":"government","mobile":false}
{"date":{"utc":"2020-06-18T19:00:00.000Z","local":"2020-06-18T21:00:00+02:00"},"parameter":"o3","value":59.07,"unit":"µg/m³","averagingPeriod":{"value":1,"unit":"hours"},"location":"Vredepeel-Vredeweg","city":"Vredepeel","country":"NL","coordinates":{"latitude":51.5405,"longitude":5.85307},"attribution":[{"name":"RIVM","url":"http://www.lml.rivm.nl/"}],"sourceName":"Netherlands","sourceType":"government","mobile":false}
{"date":{"utc":"2020-06-18T19:00:00.000Z","local":"2020-06-18T21:00:00+02:00"},"parameter":"o3","value":57.19,"unit":"µg/m³","averagingPeriod":{"value":1,"unit":"hours"},"location":"Wijnandsrade-Opfergeltstraat","city":"Wijnandsrade","country":"NL","coordinates":{"latitude":50.9023,"longitude":5.88175},"attribution":[{"name":"RIVM","url":"http://www.lml.rivm.nl/"}],"sourceName":"Netherlands","sourceType":"government","mobile":false}
{"date":{"utc":"2020-06-18T19:00:00.000Z","local":"2020-06-18T21:00:00+02:00"},"parameter":"o3","value":66.85,"unit":"µg/m³","averagingPeriod":{"value":1,"unit":"hours"},"location":"Heerlen-Jamboreepad","city":"Heerlen","country":"NL","coordinates":{"latitude":50.9003,"longitude":5.98685},"attribution":[{"name":"RIVM","url":"http://www.lml.rivm.nl/"}],"sourceName":"Netherlands","sourceType":"government","mobile":false}
{"date":{"utc":"2020-06-18T21:00:00.000Z","local":"2020-06-18T17:00:00-04:00"},"parameter":"pm25","value":49,"unit":"µg/m³","location":"Rancagua I","city":"Rancagua","country":"CL","coordinates":{"latitude":-34.162314609087,"longitude":-70.713919225517},"attribution":[{"name":"SINCA","url":"http://sinca.mma.gob.cl/"},{"name":"Ministerio del Medio Ambiente"}],"sourceName":"Chile - SINCA","sourceType":"government","mobile":false}
{"date":{"utc":"2020-06-18T19:00:00.000Z","local":"2020-06-18T21:00:00+02:00"},"parameter":"o3","value":64.99,"unit":"µg/m³","averagingPeriod":{"value":1,"unit":"hours"},